{
"type": "FeatureCollection",
"name": "wisatajatim",
"crs": { "type": "name", "properties": { "name": "urn:ogc:def:crs:OGC:1.3:CRS84" } },
"features": [
{ "type": "Feature", "properties": { "Name": "Kawah Ijen", "Description": "", "layer": "East Java Tourism Map Banyuwangi", "path": "C:\/Users\/maspannn\/Documents\/RUANG KITA\/WISATA\/East Java Tourism Map.kml.xml|layername=Banyuwangi" }, "geometry": { "type": "Point", "coordinates": [ 114.2413889, -8.0575, 0.0 ] } },
{ "type": "Feature", "properties": { "Name": "Teluk Hijau", "Description": "", "layer": "East Java Tourism Map Banyuwangi", "path": "C:\/Users\/maspannn\/Documents\/RUANG KITA\/WISATA\/East Java Tourism Map.kml.xml|layername=Banyuwangi" }, "geometry": { "type": "Point", "coordinates": [ 113.923989, -8.563546, 0.0 ] } },
{ "type": "Feature", "properties": { "Name": "Pantai Rajegwesi", "Description": "", "layer": "East Java Tourism Map Banyuwangi", "path": "C:\/Users\/maspannn\/Documents\/RUANG KITA\/WISATA\/East Java Tourism Map.kml.xml|layername=Banyuwangi" }, "geometry": { "type": "Point", "coordinates": [ 113.93746, -8.558713, 0.0 ] } },
{ "type": "Feature", "properties": { "Name": "Pulau Merah", "Description": "", "layer": "East Java Tourism Map Banyuwangi", "path": "C:\/Users\/maspannn\/Documents\/RUANG KITA\/WISATA\/East Java Tourism Map.kml.xml|layername=Banyuwangi" }, "geometry": { "type": "Point", "coordinates": [ 114.026129, -8.6049305, 0.0 ] } },
{ "type": "Feature", "properties": { "Name": "Bunder - Bangsring UnderWater", "Description": "", "layer": "East Java Tourism Map Banyuwangi", "path": "C:\/Users\/maspannn\/Documents\/RUANG KITA\/WISATA\/East Java Tourism Map.kml.xml|layername=Banyuwangi" }, "geometry": { "type": "Point", "coordinates": [ 114.4308012, -8.0541446, 0.0 ] } },
{ "type": "Feature", "properties": { "Name": "Pelabuhan Ketapang", "Description": "", "layer": "East Java Tourism Map Banyuwangi", "path": "C:\/Users\/maspannn\/Documents\/RUANG KITA\/WISATA\/East Java Tourism Map.kml.xml|layername=Banyuwangi" }, "geometry": { "type": "Point", "coordinates": [ 114.4014669, -8.1431353, 0.0 ] } },
{ "type": "Feature", "properties": { "Name": "Agro Petik Apel", "Description": "", "layer": "East Java Tourism Map Batu", "path": "C:\/Users\/maspannn\/Documents\/RUANG KITA\/WISATA\/East Java Tourism Map.kml.xml|layername=Batu" }, "geometry": { "type": "Point", "coordinates": [ 112.528287, -7.823943, 0.0 ] } },
{ "type": "Feature", "properties": { "Name": "Arboretum Sumber Brantas", "Description": "", "layer": "East Java Tourism Map Batu", "path": "C:\/Users\/maspannn\/Documents\/RUANG KITA\/WISATA\/East Java Tourism Map.kml.xml|layername=Batu" }, "geometry": { "type": "Point", "coordinates": [ 112.5364292, -7.7532833, 0.0 ] } },
{ "type": "Feature", "properties": { "Name": "Kusuma Agrowisata Resort & Convention Hotel", "Description": "", "layer": "East Java Tourism Map Batu", "path": "C:\/Users\/maspannn\/Documents\/RUANG KITA\/WISATA\/East Java Tourism Map.kml.xml|layername=Batu" }, "geometry": { "type": "Point", "coordinates": [ 112.515484, -7.8839075, 0.0 ] } },
{ "type": "Feature", "properties": { "Name": "Oro-Oro Ombo", "Description": "", "layer": "East Java Tourism Map Batu", "path": "C:\/Users\/maspannn\/Documents\/RUANG KITA\/WISATA\/East Java Tourism Map.kml.xml|layername=Batu" }, "geometry": { "type": "Point", "coordinates": [ 112.5274893, -7.8986671, 0.0 ] } },
{ "type": "Feature", "properties": { "Name": "Batu Night Spectacular", "Description": "", "layer": "East Java Tourism Map Batu", "path": "C:\/Users\/maspannn\/Documents\/RUANG KITA\/WISATA\/East Java Tourism Map.kml.xml|layername=Batu" }, "geometry": { "type": "Point", "coordinates": [ 112.5346644, -7.8968132, 0.0 ] } },
{ "type": "Feature", "properties": { "Name": "Jawa Timur Park", "Description": "", "layer": "East Java Tourism Map Batu", "path": "C:\/Users\/maspannn\/Documents\/RUANG KITA\/WISATA\/East Java Tourism Map.kml.xml|layername=Batu" }, "geometry": { "type": "Point", "coordinates": [ 112.5248724, -7.8843421, 0.0 ] } },
{ "type": "Feature", "properties": { "Name": "Pasar Parkiran", "Description": "", "layer": "East Java Tourism Map Batu", "path": "C:\/Users\/maspannn\/Documents\/RUANG KITA\/WISATA\/East Java Tourism Map.kml.xml|layername=Batu" }, "geometry": { "type": "Point", "coordinates": [ 112.5243774, -7.8798668, 0.0 ] } },
{ "type": "Feature", "properties": { "Name": "Museum Angkut+ Movie Star Studio", "Description": "", "layer": "East Java Tourism Map Batu", "path": "C:\/Users\/maspannn\/Documents\/RUANG KITA\/WISATA\/East Java Tourism Map.kml.xml|layername=Batu" }, "geometry": { "type": "Point", "coordinates": [ 112.5190062, -7.8785741, 0.0 ] } },
{ "type": "Feature", "properties": { "Name": "Alun Alun Kota Batu", "Description": "", "layer": "East Java Tourism Map Batu", "path": "C:\/Users\/maspannn\/Documents\/RUANG KITA\/WISATA\/East Java Tourism Map.kml.xml|layername=Batu" }, "geometry": { "type": "Point", "coordinates": [ 112.526925, -7.871153, 0.0 ] } },
{ "type": "Feature", "properties": { "Name": "Jatim Park 2", "Description": "", "layer": "East Java Tourism Map Batu", "path": "C:\/Users\/maspannn\/Documents\/RUANG KITA\/WISATA\/East Java Tourism Map.kml.xml|layername=Batu" }, "geometry": { "type": "Point", "coordinates": [ 112.5277005, -7.8888744, 0.0 ] } },
{ "type": "Feature", "properties": { "Name": "D' Topeng Museum", "Description": "", "layer": "East Java Tourism Map Batu", "path": "C:\/Users\/maspannn\/Documents\/RUANG KITA\/WISATA\/East Java Tourism Map.kml.xml|layername=Batu" }, "geometry": { "type": "Point", "coordinates": [ 112.519107, -7.878515, 0.0 ] } },
{ "type": "Feature", "properties": { "Name": "The Bagong Adventure Museum Tubuh", "Description": "", "layer": "East Java Tourism Map Batu", "path": "C:\/Users\/maspannn\/Documents\/RUANG KITA\/WISATA\/East Java Tourism Map.kml.xml|layername=Batu" }, "geometry": { "type": "Point", "coordinates": [ 112.524982, -7.8834709, 0.0 ] } },
{ "type": "Feature", "properties": { "Name": "Omah Munir", "Description": "", "layer": "East Java Tourism Map Batu", "path": "C:\/Users\/maspannn\/Documents\/RUANG KITA\/WISATA\/East Java Tourism Map.kml.xml|layername=Batu" }, "geometry": { "type": "Point", "coordinates": [ 112.5283783, -7.8458165, 0.0 ] } },
{ "type": "Feature", "properties": { "Name": "Batu Secret Zoo", "Description": "", "layer": "East Java Tourism Map Batu", "path": "C:\/Users\/maspannn\/Documents\/RUANG KITA\/WISATA\/East Java Tourism Map.kml.xml|layername=Batu" }, "geometry": { "type": "Point", "coordinates": [ 112.5292585, -7.888207, 0.0 ] } },
{ "type": "Feature", "properties": { "Name": "Predator Fun Park", "Description": "", "layer": "East Java Tourism Map Batu", "path": "C:\/Users\/maspannn\/Documents\/RUANG KITA\/WISATA\/East Java Tourism Map.kml.xml|layername=Batu" }, "geometry": { "type": "Point", "coordinates": [ 112.5481272, -7.9127448, 0.0 ] } },
{ "type": "Feature", "properties": { "Name": "Batu Wonderland Resort and Waterpark", "Description": "", "layer": "East Java Tourism Map Batu", "path": "C:\/Users\/maspannn\/Documents\/RUANG KITA\/WISATA\/East Java Tourism Map.kml.xml|layername=Batu" }, "geometry": { "type": "Point", "coordinates": [ 112.5329878, -7.8808013, 0.0 ] } },
{ "type": "Feature", "properties": { "Name": "Selecta Taman Wisata", "Description": "", "layer": "East Java Tourism Map Batu", "path": "C:\/Users\/maspannn\/Documents\/RUANG KITA\/WISATA\/East Java Tourism Map.kml.xml|layername=Batu" }, "geometry": { "type": "Point", "coordinates": [ 112.525178, -7.81777, 0.0 ] } },
{ "type": "Feature", "properties": { "Name": "Stadion Brantas", "Description": "", "layer": "East Java Tourism Map Batu", "path": "C:\/Users\/maspannn\/Documents\/RUANG KITA\/WISATA\/East Java Tourism Map.kml.xml|layername=Batu" }, "geometry": { "type": "Point", "coordinates": [ 112.5263125, -7.8782022, 0.0 ] } },
{ "type": "Feature", "properties": { "Name": "Klenteng Kwan Imtong", "Description": "", "layer": "East Java Tourism Map Batu", "path": "C:\/Users\/maspannn\/Documents\/RUANG KITA\/WISATA\/East Java Tourism Map.kml.xml|layername=Batu" }, "geometry": { "type": "Point", "coordinates": [ 112.5242556, -7.8699525, 0.0 ] } },
{ "type": "Feature", "properties": { "Name": "Galeri Raos", "Description": "", "layer": "East Java Tourism Map Batu", "path": "C:\/Users\/maspannn\/Documents\/RUANG KITA\/WISATA\/East Java Tourism Map.kml.xml|layername=Batu" }, "geometry": { "type": "Point", "coordinates": [ 112.5237745, -7.8699193, 0.0 ] } },
{ "type": "Feature", "properties": { "Name": "Vihara Dhammadipa Arama", "Description": "", "layer": "East Java Tourism Map Batu", "path": "C:\/Users\/maspannn\/Documents\/RUANG KITA\/WISATA\/East Java Tourism Map.kml.xml|layername=Batu" }, "geometry": { "type": "Point", "coordinates": [ 112.561238, -7.9036, 0.0 ] } },
{ "type": "Feature", "properties": { "Name": "Stasiun Kereta Api", "Description": "Jl. Mastrip, Blitar, Jawa Timur 66117 Train transit here : Penataran Dhoho, Matarmaja, Majapahit, Gajayana, Malabar, and Malioboro Express. Find the schedule on the web.", "layer": "East Java Tourism Map Blitar", "path": "C:\/Users\/maspannn\/Documents\/RUANG KITA\/WISATA\/East Java Tourism Map.kml.xml|layername=Blitar" }, "geometry": { "type": "Point", "coordinates": [ 112.162814, -8.101281, 0.0 ] } },
{ "type": "Feature", "properties": { "Name": "Bus Terminal Patria", "Description": "You can find bus that go to Malang, Kepanjen, Talun, Kediri, Surabaya, Pare, Denpasar, and Jakarta.", "layer": "East Java Tourism Map Blitar", "path": "C:\/Users\/maspannn\/Documents\/RUANG KITA\/WISATA\/East Java Tourism Map.kml.xml|layername=Blitar" }, "geometry": { "type": "Point", "coordinates": [ 112.163886, -8.128553, 0.0 ] } },
{ "type": "Feature", "properties": { "Name": "Arca Ganesha Boro", "Description": "", "layer": "East Java Tourism Map Blitar", "path": "C:\/Users\/maspannn\/Documents\/RUANG KITA\/WISATA\/East Java Tourism Map.kml.xml|layername=Blitar" }, "geometry": { "type": "Point", "coordinates": [ 112.1463293, -8.1389836, 0.0 ] } },
{ "type": "Feature", "properties": { "Name": "Arca Gaprang", "Description": "", "layer": "East Java Tourism Map Blitar", "path": "C:\/Users\/maspannn\/Documents\/RUANG KITA\/WISATA\/East Java Tourism Map.kml.xml|layername=Blitar" }, "geometry": { "type": "Point", "coordinates": [ 112.1884561, -8.1182779, 0.0 ] } },
{ "type": "Feature", "properties": { "Name": "Candi Bacem", "Description": "", "layer": "East Java Tourism Map Blitar", "path": "C:\/Users\/maspannn\/Documents\/RUANG KITA\/WISATA\/East Java Tourism Map.kml.xml|layername=Blitar" }, "geometry": { "type": "Point", "coordinates": [ 112.2440636, -8.1952007, 0.0 ] } },
{ "type": "Feature", "properties": { "Name": "Candi Kalicilik", "Description": "", "layer": "East Java Tourism Map Blitar", "path": "C:\/Users\/maspannn\/Documents\/RUANG KITA\/WISATA\/East Java Tourism Map.kml.xml|layername=Blitar" }, "geometry": { "type": "Point", "coordinates": [ 112.140318, -7.998001, 0.0 ] } },
{ "type": "Feature", "properties": { "Name": "Candi Penataran", "Description": "Hinduism Temple that was build on Kediri kingdom era is the biggest temple in East java.", "layer": "East Java Tourism Map Blitar", "path": "C:\/Users\/maspannn\/Documents\/RUANG KITA\/WISATA\/East Java Tourism Map.kml.xml|layername=Blitar" }, "geometry": { "type": "Point", "coordinates": [ 112.20975, -8.016423, 0.0 ] } },
{ "type": "Feature", "properties": { "Name": "Candi Simping", "Description": "", "layer": "East Java Tourism Map Blitar", "path": "C:\/Users\/maspannn\/Documents\/RUANG KITA\/WISATA\/East Java Tourism Map.kml.xml|layername=Blitar" }, "geometry": { "type": "Point", "coordinates": [ 112.1461308, -8.1640691, 0.0 ] } },
{ "type": "Feature", "properties": { "Name": "Candi Sumbernanas", "Description": "", "layer": "East Java Tourism Map Blitar", "path": "C:\/Users\/maspannn\/Documents\/RUANG KITA\/WISATA\/East Java Tourism Map.kml.xml|layername=Blitar" }, "geometry": { "type": "Point", "coordinates": [ 112.1427512, -8.0114451, 0.0 ] } },
{ "type": "Feature", "properties": { "Name": "Makam Bung Karno", "Description": "Jl. Ir. Soekarno, Blitar, Jawa Timur - 68113. In this place you can find the grave of The First President of Indonesia (Sang Proklamator), Ir. Soekarno. Also his mother, Ida Ayu Nyoman Rai, and his father, Raden Soekemi Sosrodiharjo.", "layer": "East Java Tourism Map Blitar", "path": "C:\/Users\/maspannn\/Documents\/RUANG KITA\/WISATA\/East Java Tourism Map.kml.xml|layername=Blitar" }, "geometry": { "type": "Point", "coordinates": [ 112.1758014, -8.085223, 0.0 ] } },
{ "type": "Feature", "properties": { "Name": "Istana Gebang", "Description": "House of First President of Indonesia, Soekarno. Jl. Sultan Agung No 69, Sanan Wetan Blitar.", "layer": "East Java Tourism Map Blitar", "path": "C:\/Users\/maspannn\/Documents\/RUANG KITA\/WISATA\/East Java Tourism Map.kml.xml|layername=Blitar" }, "geometry": { "type": "Point", "coordinates": [ 112.17611, -8.09778, 0.0 ] } },
{ "type": "Feature", "properties": { "Name": "Pesanggrahan Djojodigdan", "Description": "House of Patih Djojodigdo (read: joyodigdo), one of local patriot and a loyal follower of Pangeran Diponegoro. He is parent in law of R.A Kartini.", "layer": "East Java Tourism Map Blitar", "path": "C:\/Users\/maspannn\/Documents\/RUANG KITA\/WISATA\/East Java Tourism Map.kml.xml|layername=Blitar" }, "geometry": { "type": "Point", "coordinates": [ 112.163336, -8.103818, 0.0 ] } },
{ "type": "Feature", "properties": { "Name": "Monumen PETA", "Description": "Jln. Sudanco Supriyadi, Blitar. This monument was build in front of PETA army post. PETA i(Pembela Tanah Air)  was an Indonesian volunteer army established on1943 by the occupying Japanese. The Japanese intended PETA to assist their forces oppose a possible invasion by the Allies.", "layer": "East Java Tourism Map Blitar", "path": "C:\/Users\/maspannn\/Documents\/RUANG KITA\/WISATA\/East Java Tourism Map.kml.xml|layername=Blitar" }, "geometry": { "type": "Point", "coordinates": [ 112.18028, -8.087969, 0.0 ] } },
{ "type": "Feature", "properties": { "Name": "UPT Perpustakaan Proklamator Bung Karno", "Description": "Jl. Ir. Soekarno, Blitar. This library has many collection of books especially related to Soekarno literature.", "layer": "East Java Tourism Map Blitar", "path": "C:\/Users\/maspannn\/Documents\/RUANG KITA\/WISATA\/East Java Tourism Map.kml.xml|layername=Blitar" }, "geometry": { "type": "Point", "coordinates": [ 112.17545, -8.085689, 0.0 ] } },
{ "type": "Feature", "properties": { "Name": "Masjid Agung", "Description": "Jl. Masjid No 13, Blitar. A mosque that build on 1820, the witness of the historical development of islam in Blitar.", "layer": "East Java Tourism Map Blitar", "path": "C:\/Users\/maspannn\/Documents\/RUANG KITA\/WISATA\/East Java Tourism Map.kml.xml|layername=Blitar" }, "geometry": { "type": "Point", "coordinates": [ 112.164296, -8.098261, 0.0 ] } },
{ "type": "Feature", "properties": { "Name": "Warung Mbok Bari 6", "Description": "Nasi Pecel Khas Blitar. Jl. Ir Soekarno No 93, Blitar. Pecel is one of the legendary culinary from this town. You must try it!", "layer": "East Java Tourism Map Blitar", "path": "C:\/Users\/maspannn\/Documents\/RUANG KITA\/WISATA\/East Java Tourism Map.kml.xml|layername=Blitar" }, "geometry": { "type": "Point", "coordinates": [ 112.1761807, -8.0840222, 0.0 ] } },
{ "type": "Feature", "properties": { "Name": "Warung Mak Ti", "Description": "", "layer": "East Java Tourism Map Blitar", "path": "C:\/Users\/maspannn\/Documents\/RUANG KITA\/WISATA\/East Java Tourism Map.kml.xml|layername=Blitar" }, "geometry": { "type": "Point", "coordinates": [ 112.176688, -8.140569, 0.0 ] } },
{ "type": "Feature", "properties": { "Name": "Es Mini 2", "Description": "One of best cafe for your culinary trip. Offering dessert which call es mini, using many fruits as the ingredient. So fresh!", "layer": "East Java Tourism Map Blitar", "path": "C:\/Users\/maspannn\/Documents\/RUANG KITA\/WISATA\/East Java Tourism Map.kml.xml|layername=Blitar" }, "geometry": { "type": "Point", "coordinates": [ 112.168974, -8.098286, 0.0 ] } },
{ "type": "Feature", "properties": { "Name": "Taman Kota Kebon Rojo", "Description": "A small recration park, free for visitors. In this park, there is  a few of animals such as merak bird, deer, monkey.", "layer": "East Java Tourism Map Blitar", "path": "C:\/Users\/maspannn\/Documents\/RUANG KITA\/WISATA\/East Java Tourism Map.kml.xml|layername=Blitar" }, "geometry": { "type": "Point", "coordinates": [ 112.175047, -8.096664, 0.0 ] } },
{ "type": "Feature", "properties": { "Name": "Alun Alun Blitar", "Description": "Activity center of the town, every event will be held in here. People always visit here for short vacation, exercising or just hang out with family and friend.", "layer": "East Java Tourism Map Blitar", "path": "C:\/Users\/maspannn\/Documents\/RUANG KITA\/WISATA\/East Java Tourism Map.kml.xml|layername=Blitar" }, "geometry": { "type": "Point", "coordinates": [ 112.1652762, -8.0979904, 0.0 ] } },
{ "type": "Feature", "properties": { "Name": "Bandar Udara Abdul Rachman Saleh", "Description": "", "layer": "East Java Tourism Map Malang", "path": "C:\/Users\/maspannn\/Documents\/RUANG KITA\/WISATA\/East Java Tourism Map.kml.xml|layername=Malang" }, "geometry": { "type": "Point", "coordinates": [ 112.713403, -7.927945, 0.0 ] } },
{ "type": "Feature", "properties": { "Name": "Stasiun Kota Baru Malang", "Description": "", "layer": "East Java Tourism Map Malang", "path": "C:\/Users\/maspannn\/Documents\/RUANG KITA\/WISATA\/East Java Tourism Map.kml.xml|layername=Malang" }, "geometry": { "type": "Point", "coordinates": [ 112.6370689, -7.9775401, 0.0 ] } },
{ "type": "Feature", "properties": { "Name": "Terminal Arjosari", "Description": "", "layer": "East Java Tourism Map Malang", "path": "C:\/Users\/maspannn\/Documents\/RUANG KITA\/WISATA\/East Java Tourism Map.kml.xml|layername=Malang" }, "geometry": { "type": "Point", "coordinates": [ 112.658868, -7.934936, 0.0 ] } },
{ "type": "Feature", "properties": { "Name": "Terminal Landungsari", "Description": "", "layer": "East Java Tourism Map Malang", "path": "C:\/Users\/maspannn\/Documents\/RUANG KITA\/WISATA\/East Java Tourism Map.kml.xml|layername=Malang" }, "geometry": { "type": "Point", "coordinates": [ 112.598012, -7.925292, 0.0 ] } },
{ "type": "Feature", "properties": { "Name": "Terminal Hamid Rusdi", "Description": "", "layer": "East Java Tourism Map Malang", "path": "C:\/Users\/maspannn\/Documents\/RUANG KITA\/WISATA\/East Java Tourism Map.kml.xml|layername=Malang" }, "geometry": { "type": "Point", "coordinates": [ 112.643431, -8.026016, 0.0 ] } },
{ "type": "Feature", "properties": { "Name": "Museum Brawijaya", "Description": "", "layer": "East Java Tourism Map Malang", "path": "C:\/Users\/maspannn\/Documents\/RUANG KITA\/WISATA\/East Java Tourism Map.kml.xml|layername=Malang" }, "geometry": { "type": "Point", "coordinates": [ 112.621101, -7.97209, 0.0 ] } },
{ "type": "Feature", "properties": { "Name": "Museum Malang Tempo Doeloe", "Description": "", "layer": "East Java Tourism Map Malang", "path": "C:\/Users\/maspannn\/Documents\/RUANG KITA\/WISATA\/East Java Tourism Map.kml.xml|layername=Malang" }, "geometry": { "type": "Point", "coordinates": [ 112.6349575, -7.9787267, 0.0 ] } },
{ "type": "Feature", "properties": { "Name": "Museum Bentoel", "Description": "", "layer": "East Java Tourism Map Malang", "path": "C:\/Users\/maspannn\/Documents\/RUANG KITA\/WISATA\/East Java Tourism Map.kml.xml|layername=Malang" }, "geometry": { "type": "Point", "coordinates": [ 112.6320544, -7.9867907, 0.0 ] } },
{ "type": "Feature", "properties": { "Name": "Pasar Bunga Kota Malang", "Description": "", "layer": "East Java Tourism Map Malang", "path": "C:\/Users\/maspannn\/Documents\/RUANG KITA\/WISATA\/East Java Tourism Map.kml.xml|layername=Malang" }, "geometry": { "type": "Point", "coordinates": [ 112.631165, -7.977634, 0.0 ] } },
{ "type": "Feature", "properties": { "Name": "Pasar Burung Splendid", "Description": "", "layer": "East Java Tourism Map Malang", "path": "C:\/Users\/maspannn\/Documents\/RUANG KITA\/WISATA\/East Java Tourism Map.kml.xml|layername=Malang" }, "geometry": { "type": "Point", "coordinates": [ 112.631861, -7.978821, 0.0 ] } },
{ "type": "Feature", "properties": { "Name": "Taman Tugu Malang", "Description": "", "layer": "East Java Tourism Map Malang", "path": "C:\/Users\/maspannn\/Documents\/RUANG KITA\/WISATA\/East Java Tourism Map.kml.xml|layername=Malang" }, "geometry": { "type": "Point", "coordinates": [ 112.63403, -7.977141, 0.0 ] } },
{ "type": "Feature", "properties": { "Name": "Monumen Juang", "Description": "", "layer": "East Java Tourism Map Malang", "path": "C:\/Users\/maspannn\/Documents\/RUANG KITA\/WISATA\/East Java Tourism Map.kml.xml|layername=Malang" }, "geometry": { "type": "Point", "coordinates": [ 112.636326, -7.977553, 0.0 ] } },
{ "type": "Feature", "properties": { "Name": "Monumen Sejarah Perjuangan KNIP", "Description": "", "layer": "East Java Tourism Map Malang", "path": "C:\/Users\/maspannn\/Documents\/RUANG KITA\/WISATA\/East Java Tourism Map.kml.xml|layername=Malang" }, "geometry": { "type": "Point", "coordinates": [ 112.630573, -7.981429, 0.0 ] } },
{ "type": "Feature", "properties": { "Name": "Taman Wisata Dan Budaya Senaputra", "Description": "", "layer": "East Java Tourism Map Malang", "path": "C:\/Users\/maspannn\/Documents\/RUANG KITA\/WISATA\/East Java Tourism Map.kml.xml|layername=Malang" }, "geometry": { "type": "Point", "coordinates": [ 112.631618, -7.975771, 0.0 ] } },
{ "type": "Feature", "properties": { "Name": "Taman Rekreasi Kota", "Description": "", "layer": "East Java Tourism Map Malang", "path": "C:\/Users\/maspannn\/Documents\/RUANG KITA\/WISATA\/East Java Tourism Map.kml.xml|layername=Malang" }, "geometry": { "type": "Point", "coordinates": [ 112.633314, -7.978842, 0.0 ] } },
{ "type": "Feature", "properties": { "Name": "Alun-Alun Kota", "Description": "", "layer": "East Java Tourism Map Malang", "path": "C:\/Users\/maspannn\/Documents\/RUANG KITA\/WISATA\/East Java Tourism Map.kml.xml|layername=Malang" }, "geometry": { "type": "Point", "coordinates": [ 112.630829, -7.982641, 0.0 ] } },
{ "type": "Feature", "properties": { "Name": "Pasar Besar Malang", "Description": "", "layer": "East Java Tourism Map Malang", "path": "C:\/Users\/maspannn\/Documents\/RUANG KITA\/WISATA\/East Java Tourism Map.kml.xml|layername=Malang" }, "geometry": { "type": "Point", "coordinates": [ 112.633109, -7.9871694, 0.0 ] } },
{ "type": "Feature", "properties": { "Name": "Gereja Hati Kudus Yesus", "Description": "", "layer": "East Java Tourism Map Malang", "path": "C:\/Users\/maspannn\/Documents\/RUANG KITA\/WISATA\/East Java Tourism Map.kml.xml|layername=Malang" }, "geometry": { "type": "Point", "coordinates": [ 112.630844, -7.980727, 0.0 ] } },
{ "type": "Feature", "properties": { "Name": "GPIB Jemaat \"Immanuel\" Malang", "Description": "", "layer": "East Java Tourism Map Malang", "path": "C:\/Users\/maspannn\/Documents\/RUANG KITA\/WISATA\/East Java Tourism Map.kml.xml|layername=Malang" }, "geometry": { "type": "Point", "coordinates": [ 112.630119, -7.981739, 0.0 ] } },
{ "type": "Feature", "properties": { "Name": "Masjid Jami Agung", "Description": "", "layer": "East Java Tourism Map Malang", "path": "C:\/Users\/maspannn\/Documents\/RUANG KITA\/WISATA\/East Java Tourism Map.kml.xml|layername=Malang" }, "geometry": { "type": "Point", "coordinates": [ 112.629938, -7.982487, 0.0 ] } },
{ "type": "Feature", "properties": { "Name": "Klenteng Eng An Kiong", "Description": "", "layer": "East Java Tourism Map Malang", "path": "C:\/Users\/maspannn\/Documents\/RUANG KITA\/WISATA\/East Java Tourism Map.kml.xml|layername=Malang" }, "geometry": { "type": "Point", "coordinates": [ 112.635885, -7.987554, 0.0 ] } },
{ "type": "Feature", "properties": { "Name": "Hotel Pelangi Malang", "Description": "", "layer": "East Java Tourism Map Malang", "path": "C:\/Users\/maspannn\/Documents\/RUANG KITA\/WISATA\/East Java Tourism Map.kml.xml|layername=Malang" }, "geometry": { "type": "Point", "coordinates": [ 112.630392, -7.983698, 0.0 ] } },
{ "type": "Feature", "properties": { "Name": "Bakso Bakar Pak Man", "Description": "", "layer": "East Java Tourism Map Malang", "path": "C:\/Users\/maspannn\/Documents\/RUANG KITA\/WISATA\/East Java Tourism Map.kml.xml|layername=Malang" }, "geometry": { "type": "Point", "coordinates": [ 112.633857, -7.968804, 0.0 ] } },
{ "type": "Feature", "properties": { "Name": "Bakso Stasiun Spesial P. Dulmanan", "Description": "", "layer": "East Java Tourism Map Malang", "path": "C:\/Users\/maspannn\/Documents\/RUANG KITA\/WISATA\/East Java Tourism Map.kml.xml|layername=Malang" }, "geometry": { "type": "Point", "coordinates": [ 112.637125, -7.978753, 0.0 ] } },
{ "type": "Feature", "properties": { "Name": "Depot Mie Malang Gadjah Mada 1", "Description": "", "layer": "East Java Tourism Map Malang", "path": "C:\/Users\/maspannn\/Documents\/RUANG KITA\/WISATA\/East Java Tourism Map.kml.xml|layername=Malang" }, "geometry": { "type": "Point", "coordinates": [ 112.63158, -7.985248, 0.0 ] } },
{ "type": "Feature", "properties": { "Name": "Depot Gang Djangkrik", "Description": "", "layer": "East Java Tourism Map Malang", "path": "C:\/Users\/maspannn\/Documents\/RUANG KITA\/WISATA\/East Java Tourism Map.kml.xml|layername=Malang" }, "geometry": { "type": "Point", "coordinates": [ 112.619335, -7.975337, 0.0 ] } },
{ "type": "Feature", "properties": { "Name": "Gloria Restaurant", "Description": "", "layer": "East Java Tourism Map Malang", "path": "C:\/Users\/maspannn\/Documents\/RUANG KITA\/WISATA\/East Java Tourism Map.kml.xml|layername=Malang" }, "geometry": { "type": "Point", "coordinates": [ 112.633537, -7.984111, 0.0 ] } },
{ "type": "Feature", "properties": { "Name": "Cak Kribo", "Description": "", "layer": "East Java Tourism Map Malang", "path": "C:\/Users\/maspannn\/Documents\/RUANG KITA\/WISATA\/East Java Tourism Map.kml.xml|layername=Malang" }, "geometry": { "type": "Point", "coordinates": [ 112.62891, -7.98409, 0.0 ] } },
{ "type": "Feature", "properties": { "Name": "Soto Ayam Boldy", "Description": "", "layer": "East Java Tourism Map Malang", "path": "C:\/Users\/maspannn\/Documents\/RUANG KITA\/WISATA\/East Java Tourism Map.kml.xml|layername=Malang" }, "geometry": { "type": "Point", "coordinates": [ 112.636592, -7.985038, 0.0 ] } },
{ "type": "Feature", "properties": { "Name": "Orem-orem Ketupat Pak H. Moh Syahri Pertukangan", "Description": "", "layer": "East Java Tourism Map Malang", "path": "C:\/Users\/maspannn\/Documents\/RUANG KITA\/WISATA\/East Java Tourism Map.kml.xml|layername=Malang" }, "geometry": { "type": "Point", "coordinates": [ 112.636561, -7.984058, 0.0 ] } },
{ "type": "Feature", "properties": { "Name": "Tahu Lontong Lonceng Panca Budhi", "Description": "", "layer": "East Java Tourism Map Malang", "path": "C:\/Users\/maspannn\/Documents\/RUANG KITA\/WISATA\/East Java Tourism Map.kml.xml|layername=Malang" }, "geometry": { "type": "Point", "coordinates": [ 112.634977, -7.987866, 0.0 ] } },
{ "type": "Feature", "properties": { "Name": "Depot Bhuk Matirah", "Description": "", "layer": "East Java Tourism Map Malang", "path": "C:\/Users\/maspannn\/Documents\/RUANG KITA\/WISATA\/East Java Tourism Map.kml.xml|layername=Malang" }, "geometry": { "type": "Point", "coordinates": [ 112.63704, -7.977133, 0.0 ] } },
{ "type": "Feature", "properties": { "Name": "Rawon Tessy", "Description": "", "layer": "East Java Tourism Map Malang", "path": "C:\/Users\/maspannn\/Documents\/RUANG KITA\/WISATA\/East Java Tourism Map.kml.xml|layername=Malang" }, "geometry": { "type": "Point", "coordinates": [ 112.637215, -7.980073, 0.0 ] } },
{ "type": "Feature", "properties": { "Name": "Rawon Nguling - Malang", "Description": "", "layer": "East Java Tourism Map Malang", "path": "C:\/Users\/maspannn\/Documents\/RUANG KITA\/WISATA\/East Java Tourism Map.kml.xml|layername=Malang" }, "geometry": { "type": "Point", "coordinates": [ 112.6340032, -7.9839193, 0.0 ] } },
{ "type": "Feature", "properties": { "Name": "Sego Goreng Resek", "Description": "", "layer": "East Java Tourism Map Malang", "path": "C:\/Users\/maspannn\/Documents\/RUANG KITA\/WISATA\/East Java Tourism Map.kml.xml|layername=Malang" }, "geometry": { "type": "Point", "coordinates": [ 112.625939, -7.984063, 0.0 ] } },
{ "type": "Feature", "properties": { "Name": "Nasgor Pak Dji", "Description": "", "layer": "East Java Tourism Map Malang", "path": "C:\/Users\/maspannn\/Documents\/RUANG KITA\/WISATA\/East Java Tourism Map.kml.xml|layername=Malang" }, "geometry": { "type": "Point", "coordinates": [ 112.63711, -7.978407, 0.0 ] } },
{ "type": "Feature", "properties": { "Name": "Ayam Panggang Sri", "Description": "", "layer": "East Java Tourism Map Malang", "path": "C:\/Users\/maspannn\/Documents\/RUANG KITA\/WISATA\/East Java Tourism Map.kml.xml|layername=Malang" }, "geometry": { "type": "Point", "coordinates": [ 112.636223, -7.978161, 0.0 ] } },
{ "type": "Feature", "properties": { "Name": "Mie Aceh & Teh Tarek Bang Amad", "Description": "", "layer": "East Java Tourism Map Malang", "path": "C:\/Users\/maspannn\/Documents\/RUANG KITA\/WISATA\/East Java Tourism Map.kml.xml|layername=Malang" }, "geometry": { "type": "Point", "coordinates": [ 112.600571, -7.925511, 0.0 ] } },
{ "type": "Feature", "properties": { "Name": "Rumah Makan Kertanegara", "Description": "", "layer": "East Java Tourism Map Malang", "path": "C:\/Users\/maspannn\/Documents\/RUANG KITA\/WISATA\/East Java Tourism Map.kml.xml|layername=Malang" }, "geometry": { "type": "Point", "coordinates": [ 112.635649, -7.977173, 0.0 ] } },
{ "type": "Feature", "properties": { "Name": "Inggil Museum Resto", "Description": "", "layer": "East Java Tourism Map Malang", "path": "C:\/Users\/maspannn\/Documents\/RUANG KITA\/WISATA\/East Java Tourism Map.kml.xml|layername=Malang" }, "geometry": { "type": "Point", "coordinates": [ 112.635088, -7.979022, 0.0 ] } },
{ "type": "Feature", "properties": { "Name": "Restoran Melati", "Description": "", "layer": "East Java Tourism Map Malang", "path": "C:\/Users\/maspannn\/Documents\/RUANG KITA\/WISATA\/East Java Tourism Map.kml.xml|layername=Malang" }, "geometry": { "type": "Point", "coordinates": [ 112.632895, -7.977133, 0.0 ] } },
{ "type": "Feature", "properties": { "Name": "Ocean Garden Seafood and Javanese Resto", "Description": "", "layer": "East Java Tourism Map Malang", "path": "C:\/Users\/maspannn\/Documents\/RUANG KITA\/WISATA\/East Java Tourism Map.kml.xml|layername=Malang" }, "geometry": { "type": "Point", "coordinates": [ 112.636771, -7.979428, 0.0 ] } },
{ "type": "Feature", "properties": { "Name": "Warung Lama Haji Ridwan", "Description": "", "layer": "East Java Tourism Map Malang", "path": "C:\/Users\/maspannn\/Documents\/RUANG KITA\/WISATA\/East Java Tourism Map.kml.xml|layername=Malang" }, "geometry": { "type": "Point", "coordinates": [ 112.6332443, -7.9865796, 0.0 ] } },
{ "type": "Feature", "properties": { "Name": "Rumah Makan Salam Manis 2", "Description": "", "layer": "East Java Tourism Map Malang", "path": "C:\/Users\/maspannn\/Documents\/RUANG KITA\/WISATA\/East Java Tourism Map.kml.xml|layername=Malang" }, "geometry": { "type": "Point", "coordinates": [ 112.635215, -7.988703, 0.0 ] } },
{ "type": "Feature", "properties": { "Name": "Warung \"Arema\"", "Description": "", "layer": "East Java Tourism Map Malang", "path": "C:\/Users\/maspannn\/Documents\/RUANG KITA\/WISATA\/East Java Tourism Map.kml.xml|layername=Malang" }, "geometry": { "type": "Point", "coordinates": [ 112.636496, -7.9853, 0.0 ] } },
{ "type": "Feature", "properties": { "Name": "Madonna Terang Bulan", "Description": "", "layer": "East Java Tourism Map Malang", "path": "C:\/Users\/maspannn\/Documents\/RUANG KITA\/WISATA\/East Java Tourism Map.kml.xml|layername=Malang" }, "geometry": { "type": "Point", "coordinates": [ 112.632103, -7.984, 0.0 ] } },
{ "type": "Feature", "properties": { "Name": "Martabak Agung", "Description": "", "layer": "East Java Tourism Map Malang", "path": "C:\/Users\/maspannn\/Documents\/RUANG KITA\/WISATA\/East Java Tourism Map.kml.xml|layername=Malang" }, "geometry": { "type": "Point", "coordinates": [ 112.631794, -7.983587, 0.0 ] } },
{ "type": "Feature", "properties": { "Name": "Toko Oen", "Description": "", "layer": "East Java Tourism Map Malang", "path": "C:\/Users\/maspannn\/Documents\/RUANG KITA\/WISATA\/East Java Tourism Map.kml.xml|layername=Malang" }, "geometry": { "type": "Point", "coordinates": [ 112.6303201, -7.9806712, 0.0 ] } },
{ "type": "Feature", "properties": { "Name": "Depot Tahwa Ronde Mas Agus", "Description": "", "layer": "East Java Tourism Map Malang", "path": "C:\/Users\/maspannn\/Documents\/RUANG KITA\/WISATA\/East Java Tourism Map.kml.xml|layername=Malang" }, "geometry": { "type": "Point", "coordinates": [ 112.632769, -7.98141, 0.0 ] } },
{ "type": "Feature", "properties": { "Name": "Java Dancer Coffee", "Description": "", "layer": "East Java Tourism Map Malang", "path": "C:\/Users\/maspannn\/Documents\/RUANG KITA\/WISATA\/East Java Tourism Map.kml.xml|layername=Malang" }, "geometry": { "type": "Point", "coordinates": [ 112.633025, -7.976774, 0.0 ] } },
{ "type": "Feature", "properties": { "Name": "Houtenhand", "Description": "", "layer": "East Java Tourism Map Malang", "path": "C:\/Users\/maspannn\/Documents\/RUANG KITA\/WISATA\/East Java Tourism Map.kml.xml|layername=Malang" }, "geometry": { "type": "Point", "coordinates": [ 112.6295887, -7.9770503, 0.0 ] } },
{ "type": "Feature", "properties": { "Name": "Omah Mode", "Description": "", "layer": "East Java Tourism Map Malang", "path": "C:\/Users\/maspannn\/Documents\/RUANG KITA\/WISATA\/East Java Tourism Map.kml.xml|layername=Malang" }, "geometry": { "type": "Point", "coordinates": [ 112.634499, -7.975679, 0.0 ] } },
{ "type": "Feature", "properties": { "Name": "Soto Ayam Ambengan", "Description": "", "layer": "East Java Tourism Map Malang", "path": "C:\/Users\/maspannn\/Documents\/RUANG KITA\/WISATA\/East Java Tourism Map.kml.xml|layername=Malang" }, "geometry": { "type": "Point", "coordinates": [ 112.633132, -7.972097, 0.0 ] } },
{ "type": "Feature", "properties": { "Name": "Puthu Lanang", "Description": "", "layer": "East Java Tourism Map Malang", "path": "C:\/Users\/maspannn\/Documents\/RUANG KITA\/WISATA\/East Java Tourism Map.kml.xml|layername=Malang" }, "geometry": { "type": "Point", "coordinates": [ 112.6335443, -7.9664977, 0.0 ] } },
{ "type": "Feature", "properties": { "Name": "Warung Es Dan Kue Mungil", "Description": "", "layer": "East Java Tourism Map Malang", "path": "C:\/Users\/maspannn\/Documents\/RUANG KITA\/WISATA\/East Java Tourism Map.kml.xml|layername=Malang" }, "geometry": { "type": "Point", "coordinates": [ 112.634409, -7.965814, 0.0 ] } },
{ "type": "Feature", "properties": { "Name": "STMJ Glintung", "Description": "", "layer": "East Java Tourism Map Malang", "path": "C:\/Users\/maspannn\/Documents\/RUANG KITA\/WISATA\/East Java Tourism Map.kml.xml|layername=Malang" }, "geometry": { "type": "Point", "coordinates": [ 112.637954, -7.967309, 0.0 ] } },
{ "type": "Feature", "properties": { "Name": "Burger Bund'der", "Description": "", "layer": "East Java Tourism Map Malang", "path": "C:\/Users\/maspannn\/Documents\/RUANG KITA\/WISATA\/East Java Tourism Map.kml.xml|layername=Malang" }, "geometry": { "type": "Point", "coordinates": [ 112.6387265, -7.9668931, 0.0 ] } },
{ "type": "Feature", "properties": { "Name": "Sop Ayam Pak Min Klaten", "Description": "", "layer": "East Java Tourism Map Malang", "path": "C:\/Users\/maspannn\/Documents\/RUANG KITA\/WISATA\/East Java Tourism Map.kml.xml|layername=Malang" }, "geometry": { "type": "Point", "coordinates": [ 112.639907, -7.96413, 0.0 ] } },
{ "type": "Feature", "properties": { "Name": "Dapur Palembang", "Description": "", "layer": "East Java Tourism Map Malang", "path": "C:\/Users\/maspannn\/Documents\/RUANG KITA\/WISATA\/East Java Tourism Map.kml.xml|layername=Malang" }, "geometry": { "type": "Point", "coordinates": [ 112.64176, -7.961009, 0.0 ] } },
{ "type": "Feature", "properties": { "Name": "Sanan Jaya Bersama", "Description": "", "layer": "East Java Tourism Map Malang", "path": "C:\/Users\/maspannn\/Documents\/RUANG KITA\/WISATA\/East Java Tourism Map.kml.xml|layername=Malang" }, "geometry": { "type": "Point", "coordinates": [ 112.643243, -7.960409, 0.0 ] } },
{ "type": "Feature", "properties": { "Name": "Mie Ayam Pagak", "Description": "", "layer": "East Java Tourism Map Malang", "path": "C:\/Users\/maspannn\/Documents\/RUANG KITA\/WISATA\/East Java Tourism Map.kml.xml|layername=Malang" }, "geometry": { "type": "Point", "coordinates": [ 112.653529, -7.966238, 0.0 ] } },
{ "type": "Feature", "properties": { "Name": "8 Oz Coffee Studio", "Description": "", "layer": "East Java Tourism Map Malang", "path": "C:\/Users\/maspannn\/Documents\/RUANG KITA\/WISATA\/East Java Tourism Map.kml.xml|layername=Malang" }, "geometry": { "type": "Point", "coordinates": [ 112.64324, -7.957099, 0.0 ] } },
{ "type": "Feature", "properties": { "Name": "Waroeng Spesial Sambal", "Description": "", "layer": "East Java Tourism Map Malang", "path": "C:\/Users\/maspannn\/Documents\/RUANG KITA\/WISATA\/East Java Tourism Map.kml.xml|layername=Malang" }, "geometry": { "type": "Point", "coordinates": [ 112.6437, -7.954141, 0.0 ] } },
{ "type": "Feature", "properties": { "Name": "Bakso President Malang", "Description": "", "layer": "East Java Tourism Map Malang", "path": "C:\/Users\/maspannn\/Documents\/RUANG KITA\/WISATA\/East Java Tourism Map.kml.xml|layername=Malang" }, "geometry": { "type": "Point", "coordinates": [ 112.636895, -7.962414, 0.0 ] } },
{ "type": "Feature", "properties": { "Name": "Simpang Luwe Cafe Malang", "Description": "", "layer": "East Java Tourism Map Malang", "path": "C:\/Users\/maspannn\/Documents\/RUANG KITA\/WISATA\/East Java Tourism Map.kml.xml|layername=Malang" }, "geometry": { "type": "Point", "coordinates": [ 112.635304, -7.9644234, 0.0 ] } },
{ "type": "Feature", "properties": { "Name": "Jagung Bakar & STMJ Tawangmangu", "Description": "", "layer": "East Java Tourism Map Malang", "path": "C:\/Users\/maspannn\/Documents\/RUANG KITA\/WISATA\/East Java Tourism Map.kml.xml|layername=Malang" }, "geometry": { "type": "Point", "coordinates": [ 112.631653, -7.960288, 0.0 ] } },
{ "type": "Feature", "properties": { "Name": "Kedai 27 Burger Buto", "Description": "", "layer": "East Java Tourism Map Malang", "path": "C:\/Users\/maspannn\/Documents\/RUANG KITA\/WISATA\/East Java Tourism Map.kml.xml|layername=Malang" }, "geometry": { "type": "Point", "coordinates": [ 112.632072, -7.959792, 0.0 ] } },
{ "type": "Feature", "properties": { "Name": "Coffee Taste", "Description": "", "layer": "East Java Tourism Map Malang", "path": "C:\/Users\/maspannn\/Documents\/RUANG KITA\/WISATA\/East Java Tourism Map.kml.xml|layername=Malang" }, "geometry": { "type": "Point", "coordinates": [ 112.6327338, -7.9600767, 0.0 ] } },
{ "type": "Feature", "properties": { "Name": "KMS Kedai Mie Sutoyo", "Description": "", "layer": "East Java Tourism Map Malang", "path": "C:\/Users\/maspannn\/Documents\/RUANG KITA\/WISATA\/East Java Tourism Map.kml.xml|layername=Malang" }, "geometry": { "type": "Point", "coordinates": [ 112.6362266, -7.9613493, 0.0 ] } },
{ "type": "Feature", "properties": { "Name": "Depot Gang Djangkrik", "Description": "", "layer": "East Java Tourism Map Malang", "path": "C:\/Users\/maspannn\/Documents\/RUANG KITA\/WISATA\/East Java Tourism Map.kml.xml|layername=Malang" }, "geometry": { "type": "Point", "coordinates": [ 112.638277, -7.956755, 0.0 ] } },
{ "type": "Feature", "properties": { "Name": "Hot Cui Mie", "Description": "", "layer": "East Java Tourism Map Malang", "path": "C:\/Users\/maspannn\/Documents\/RUANG KITA\/WISATA\/East Java Tourism Map.kml.xml|layername=Malang" }, "geometry": { "type": "Point", "coordinates": [ 112.639626, -7.951356, 0.0 ] } },
{ "type": "Feature", "properties": { "Name": "Nastam Ableh Nasi Goreng Hitam", "Description": "", "layer": "East Java Tourism Map Malang", "path": "C:\/Users\/maspannn\/Documents\/RUANG KITA\/WISATA\/East Java Tourism Map.kml.xml|layername=Malang" }, "geometry": { "type": "Point", "coordinates": [ 112.641587, -7.943791, 0.0 ] } },
{ "type": "Feature", "properties": { "Name": "Bakso Solo Kidul Pasar", "Description": "", "layer": "East Java Tourism Map Malang", "path": "C:\/Users\/maspannn\/Documents\/RUANG KITA\/WISATA\/East Java Tourism Map.kml.xml|layername=Malang" }, "geometry": { "type": "Point", "coordinates": [ 112.643096, -7.939199, 0.0 ] } },
{ "type": "Feature", "properties": { "Name": "Stasiun Blimbing", "Description": "", "layer": "East Java Tourism Map Malang", "path": "C:\/Users\/maspannn\/Documents\/RUANG KITA\/WISATA\/East Java Tourism Map.kml.xml|layername=Malang" }, "geometry": { "type": "Point", "coordinates": [ 112.644889, -7.940152, 0.0 ] } },
{ "type": "Feature", "properties": { "Name": "Und Corner", "Description": "", "layer": "East Java Tourism Map Malang", "path": "C:\/Users\/maspannn\/Documents\/RUANG KITA\/WISATA\/East Java Tourism Map.kml.xml|layername=Malang" }, "geometry": { "type": "Point", "coordinates": [ 112.6253532, -7.9642854, 0.0 ] } },
{ "type": "Feature", "properties": { "Name": "Ria Djenaka", "Description": "", "layer": "East Java Tourism Map Malang", "path": "C:\/Users\/maspannn\/Documents\/RUANG KITA\/WISATA\/East Java Tourism Map.kml.xml|layername=Malang" }, "geometry": { "type": "Point", "coordinates": [ 112.623731, -7.961724, 0.0 ] } },
{ "type": "Feature", "properties": { "Name": "Mie Ayam dan Bakso Banten", "Description": "", "layer": "East Java Tourism Map Malang", "path": "C:\/Users\/maspannn\/Documents\/RUANG KITA\/WISATA\/East Java Tourism Map.kml.xml|layername=Malang" }, "geometry": { "type": "Point", "coordinates": [ 112.6233172, -7.9610571, 0.0 ] } },
{ "type": "Feature", "properties": { "Name": "dW Coffee Shop", "Description": "", "layer": "East Java Tourism Map Malang", "path": "C:\/Users\/maspannn\/Documents\/RUANG KITA\/WISATA\/East Java Tourism Map.kml.xml|layername=Malang" }, "geometry": { "type": "Point", "coordinates": [ 112.620944, -7.961819, 0.0 ] } },
{ "type": "Feature", "properties": { "Name": "Mak Sum Resto", "Description": "", "layer": "East Java Tourism Map Malang", "path": "C:\/Users\/maspannn\/Documents\/RUANG KITA\/WISATA\/East Java Tourism Map.kml.xml|layername=Malang" }, "geometry": { "type": "Point", "coordinates": [ 112.620188, -7.966075, 0.0 ] } },
{ "type": "Feature", "properties": { "Name": "Bakso Bakar Pahlawan Trip", "Description": "", "layer": "East Java Tourism Map Malang", "path": "C:\/Users\/maspannn\/Documents\/RUANG KITA\/WISATA\/East Java Tourism Map.kml.xml|layername=Malang" }, "geometry": { "type": "Point", "coordinates": [ 112.622105, -7.968319, 0.0 ] } },
{ "type": "Feature", "properties": { "Name": "Gerai Es Dempo", "Description": "", "layer": "East Java Tourism Map Malang", "path": "C:\/Users\/maspannn\/Documents\/RUANG KITA\/WISATA\/East Java Tourism Map.kml.xml|layername=Malang" }, "geometry": { "type": "Point", "coordinates": [ 112.6190318, -7.9681541, 0.0 ] } },
{ "type": "Feature", "properties": { "Name": "Bakwan Subur", "Description": "", "layer": "East Java Tourism Map Malang", "path": "C:\/Users\/maspannn\/Documents\/RUANG KITA\/WISATA\/East Java Tourism Map.kml.xml|layername=Malang" }, "geometry": { "type": "Point", "coordinates": [ 112.620463, -7.972889, 0.0 ] } },
{ "type": "Feature", "properties": { "Name": "Racel Risol", "Description": "", "layer": "East Java Tourism Map Malang", "path": "C:\/Users\/maspannn\/Documents\/RUANG KITA\/WISATA\/East Java Tourism Map.kml.xml|layername=Malang" }, "geometry": { "type": "Point", "coordinates": [ 112.617727, -7.974067, 0.0 ] } },
{ "type": "Feature", "properties": { "Name": "MY KITCHEN", "Description": "", "layer": "East Java Tourism Map Malang", "path": "C:\/Users\/maspannn\/Documents\/RUANG KITA\/WISATA\/East Java Tourism Map.kml.xml|layername=Malang" }, "geometry": { "type": "Point", "coordinates": [ 112.6154883, -7.9749155, 0.0 ] } },
{ "type": "Feature", "properties": { "Name": "Baegopa", "Description": "", "layer": "East Java Tourism Map Malang", "path": "C:\/Users\/maspannn\/Documents\/RUANG KITA\/WISATA\/East Java Tourism Map.kml.xml|layername=Malang" }, "geometry": { "type": "Point", "coordinates": [ 112.614664, -7.97444, 0.0 ] } },
{ "type": "Feature", "properties": { "Name": "Ayam Bakar Mas Mono", "Description": "", "layer": "East Java Tourism Map Malang", "path": "C:\/Users\/maspannn\/Documents\/RUANG KITA\/WISATA\/East Java Tourism Map.kml.xml|layername=Malang" }, "geometry": { "type": "Point", "coordinates": [ 112.615954, -7.973493, 0.0 ] } },
{ "type": "Feature", "properties": { "Name": "Gule Kepala Ikan Mas Agus", "Description": "", "layer": "East Java Tourism Map Malang", "path": "C:\/Users\/maspannn\/Documents\/RUANG KITA\/WISATA\/East Java Tourism Map.kml.xml|layername=Malang" }, "geometry": { "type": "Point", "coordinates": [ 112.6174985, -7.9730206, 0.0 ] } },
{ "type": "Feature", "properties": { "Name": "Saboten Shokudo", "Description": "", "layer": "East Java Tourism Map Malang", "path": "C:\/Users\/maspannn\/Documents\/RUANG KITA\/WISATA\/East Java Tourism Map.kml.xml|layername=Malang" }, "geometry": { "type": "Point", "coordinates": [ 112.6147768, -7.9731783, 0.0 ] } },
{ "type": "Feature", "properties": { "Name": "Ayam Kremes Potre Koneng Madura", "Description": "", "layer": "East Java Tourism Map Malang", "path": "C:\/Users\/maspannn\/Documents\/RUANG KITA\/WISATA\/East Java Tourism Map.kml.xml|layername=Malang" }, "geometry": { "type": "Point", "coordinates": [ 112.615766, -7.973071, 0.0 ] } },
{ "type": "Feature", "properties": { "Name": "Terbantin Dining House", "Description": "", "layer": "East Java Tourism Map Malang", "path": "C:\/Users\/maspannn\/Documents\/RUANG KITA\/WISATA\/East Java Tourism Map.kml.xml|layername=Malang" }, "geometry": { "type": "Point", "coordinates": [ 112.616448, -7.97305, 0.0 ] } },
{ "type": "Feature", "properties": { "Name": "Syllabus Cafe", "Description": "", "layer": "East Java Tourism Map Malang", "path": "C:\/Users\/maspannn\/Documents\/RUANG KITA\/WISATA\/East Java Tourism Map.kml.xml|layername=Malang" }, "geometry": { "type": "Point", "coordinates": [ 112.616705, -7.971546, 0.0 ] } },
{ "type": "Feature", "properties": { "Name": "Mie Kudusan", "Description": "", "layer": "East Java Tourism Map Malang", "path": "C:\/Users\/maspannn\/Documents\/RUANG KITA\/WISATA\/East Java Tourism Map.kml.xml|layername=Malang" }, "geometry": { "type": "Point", "coordinates": [ 112.61654, -7.968263, 0.0 ] } },
{ "type": "Feature", "properties": { "Name": "Niki Kopitiam", "Description": "", "layer": "East Java Tourism Map Malang", "path": "C:\/Users\/maspannn\/Documents\/RUANG KITA\/WISATA\/East Java Tourism Map.kml.xml|layername=Malang" }, "geometry": { "type": "Point", "coordinates": [ 112.616906, -7.968056, 0.0 ] } },
{ "type": "Feature", "properties": { "Name": "Loving Hut Malang", "Description": "", "layer": "East Java Tourism Map Malang", "path": "C:\/Users\/maspannn\/Documents\/RUANG KITA\/WISATA\/East Java Tourism Map.kml.xml|layername=Malang" }, "geometry": { "type": "Point", "coordinates": [ 112.616472, -7.970285, 0.0 ] } },
{ "type": "Feature", "properties": { "Name": "Depot Ikana", "Description": "", "layer": "East Java Tourism Map Malang", "path": "C:\/Users\/maspannn\/Documents\/RUANG KITA\/WISATA\/East Java Tourism Map.kml.xml|layername=Malang" }, "geometry": { "type": "Point", "coordinates": [ 112.613326, -7.9704677, 0.0 ] } },
{ "type": "Feature", "properties": { "Name": "BINGSOO", "Description": "", "layer": "East Java Tourism Map Malang", "path": "C:\/Users\/maspannn\/Documents\/RUANG KITA\/WISATA\/East Java Tourism Map.kml.xml|layername=Malang" }, "geometry": { "type": "Point", "coordinates": [ 112.613412, -7.960903, 0.0 ] } },
{ "type": "Feature", "properties": { "Name": "Cafe ES KTT", "Description": "", "layer": "East Java Tourism Map Malang", "path": "C:\/Users\/maspannn\/Documents\/RUANG KITA\/WISATA\/East Java Tourism Map.kml.xml|layername=Malang" }, "geometry": { "type": "Point", "coordinates": [ 112.61331, -7.962554, 0.0 ] } },
{ "type": "Feature", "properties": { "Name": "Kedai Selat Solo Ala Nana", "Description": "", "layer": "East Java Tourism Map Malang", "path": "C:\/Users\/maspannn\/Documents\/RUANG KITA\/WISATA\/East Java Tourism Map.kml.xml|layername=Malang" }, "geometry": { "type": "Point", "coordinates": [ 112.613753, -7.960016, 0.0 ] } },
{ "type": "Feature", "properties": { "Name": "Nasi Uduk Aneka Lalapan Cak Bejo", "Description": "", "layer": "East Java Tourism Map Malang", "path": "C:\/Users\/maspannn\/Documents\/RUANG KITA\/WISATA\/East Java Tourism Map.kml.xml|layername=Malang" }, "geometry": { "type": "Point", "coordinates": [ 112.609769, -7.957977, 0.0 ] } },
{ "type": "Feature", "properties": { "Name": "Logo Board Games and Cafe", "Description": "", "layer": "East Java Tourism Map Malang", "path": "C:\/Users\/maspannn\/Documents\/RUANG KITA\/WISATA\/East Java Tourism Map.kml.xml|layername=Malang" }, "geometry": { "type": "Point", "coordinates": [ 112.608855, -7.947879, 0.0 ] } },
{ "type": "Feature", "properties": { "Name": "Papa Jahat", "Description": "", "layer": "East Java Tourism Map Malang", "path": "C:\/Users\/maspannn\/Documents\/RUANG KITA\/WISATA\/East Java Tourism Map.kml.xml|layername=Malang" }, "geometry": { "type": "Point", "coordinates": [ 112.612484, -7.947604, 0.0 ] } },
{ "type": "Feature", "properties": { "Name": "Pudji Mulyo", "Description": "", "layer": "East Java Tourism Map Malang", "path": "C:\/Users\/maspannn\/Documents\/RUANG KITA\/WISATA\/East Java Tourism Map.kml.xml|layername=Malang" }, "geometry": { "type": "Point", "coordinates": [ 112.6109411, -7.9463768, 0.0 ] } },
{ "type": "Feature", "properties": { "Name": "Ayam Geprak Banyuwangi", "Description": "", "layer": "East Java Tourism Map Malang", "path": "C:\/Users\/maspannn\/Documents\/RUANG KITA\/WISATA\/East Java Tourism Map.kml.xml|layername=Malang" }, "geometry": { "type": "Point", "coordinates": [ 112.6107082, -7.9466275, 0.0 ] } },
{ "type": "Feature", "properties": { "Name": "Bakso Urat Cak Nono", "Description": "", "layer": "East Java Tourism Map Malang", "path": "C:\/Users\/maspannn\/Documents\/RUANG KITA\/WISATA\/East Java Tourism Map.kml.xml|layername=Malang" }, "geometry": { "type": "Point", "coordinates": [ 112.609573, -7.944854, 0.0 ] } },
{ "type": "Feature", "properties": { "Name": "Soto Dok Lamongan", "Description": "", "layer": "East Java Tourism Map Malang", "path": "C:\/Users\/maspannn\/Documents\/RUANG KITA\/WISATA\/East Java Tourism Map.kml.xml|layername=Malang" }, "geometry": { "type": "Point", "coordinates": [ 112.610596, -7.943308, 0.0 ] } },
{ "type": "Feature", "properties": { "Name": "Sop Ayam Pak Min Klaten", "Description": "", "layer": "East Java Tourism Map Malang", "path": "C:\/Users\/maspannn\/Documents\/RUANG KITA\/WISATA\/East Java Tourism Map.kml.xml|layername=Malang" }, "geometry": { "type": "Point", "coordinates": [ 112.611235, -7.944936, 0.0 ] } },
{ "type": "Feature", "properties": { "Name": "May's Coffee", "Description": "", "layer": "East Java Tourism Map Malang", "path": "C:\/Users\/maspannn\/Documents\/RUANG KITA\/WISATA\/East Java Tourism Map.kml.xml|layername=Malang" }, "geometry": { "type": "Point", "coordinates": [ 112.611492, -7.944563, 0.0 ] } },
{ "type": "Feature", "properties": { "Name": "Keramik Dinoyo", "Description": "", "layer": "East Java Tourism Map Malang", "path": "C:\/Users\/maspannn\/Documents\/RUANG KITA\/WISATA\/East Java Tourism Map.kml.xml|layername=Malang" }, "geometry": { "type": "Point", "coordinates": [ 112.611376, -7.941785, 0.0 ] } },
{ "type": "Feature", "properties": { "Name": "Gadjah Lumping Dinoyo - Wisata Angkringan", "Description": "", "layer": "East Java Tourism Map Malang", "path": "C:\/Users\/maspannn\/Documents\/RUANG KITA\/WISATA\/East Java Tourism Map.kml.xml|layername=Malang" }, "geometry": { "type": "Point", "coordinates": [ 112.607988, -7.9403, 0.0 ] } },
{ "type": "Feature", "properties": { "Name": "Tahu Campur Cak Uri \"P.Kumis\"", "Description": "", "layer": "East Java Tourism Map Malang", "path": "C:\/Users\/maspannn\/Documents\/RUANG KITA\/WISATA\/East Java Tourism Map.kml.xml|layername=Malang" }, "geometry": { "type": "Point", "coordinates": [ 112.609164, -7.941922, 0.0 ] } },
{ "type": "Feature", "properties": { "Name": "Bakso Solo Tandon", "Description": "", "layer": "East Java Tourism Map Malang", "path": "C:\/Users\/maspannn\/Documents\/RUANG KITA\/WISATA\/East Java Tourism Map.kml.xml|layername=Malang" }, "geometry": { "type": "Point", "coordinates": [ 112.604721, -7.935242, 0.0 ] } },
{ "type": "Feature", "properties": { "Name": "Soto Ayam Lombok", "Description": "", "layer": "East Java Tourism Map Malang", "path": "C:\/Users\/maspannn\/Documents\/RUANG KITA\/WISATA\/East Java Tourism Map.kml.xml|layername=Malang" }, "geometry": { "type": "Point", "coordinates": [ 112.60286, -7.930909, 0.0 ] } },
{ "type": "Feature", "properties": { "Name": "Pangsit Mie Pak Sumarto", "Description": "", "layer": "East Java Tourism Map Malang", "path": "C:\/Users\/maspannn\/Documents\/RUANG KITA\/WISATA\/East Java Tourism Map.kml.xml|layername=Malang" }, "geometry": { "type": "Point", "coordinates": [ 112.6136725, -7.9477094, 0.0 ] } },
{ "type": "Feature", "properties": { "Name": "Mie Ayam Solo Pak Doel", "Description": "", "layer": "East Java Tourism Map Malang", "path": "C:\/Users\/maspannn\/Documents\/RUANG KITA\/WISATA\/East Java Tourism Map.kml.xml|layername=Malang" }, "geometry": { "type": "Point", "coordinates": [ 112.618882, -7.946879, 0.0 ] } },
{ "type": "Feature", "properties": { "Name": "Waroeng Steak And Shake", "Description": "", "layer": "East Java Tourism Map Malang", "path": "C:\/Users\/maspannn\/Documents\/RUANG KITA\/WISATA\/East Java Tourism Map.kml.xml|layername=Malang" }, "geometry": { "type": "Point", "coordinates": [ 112.618172, -7.946526, 0.0 ] } },
{ "type": "Feature", "properties": { "Name": "Mie Jogging", "Description": "", "layer": "East Java Tourism Map Malang", "path": "C:\/Users\/maspannn\/Documents\/RUANG KITA\/WISATA\/East Java Tourism Map.kml.xml|layername=Malang" }, "geometry": { "type": "Point", "coordinates": [ 112.618759, -7.945725, 0.0 ] } },
{ "type": "Feature", "properties": { "Name": "HD'R Comic Cafe", "Description": "", "layer": "East Java Tourism Map Malang", "path": "C:\/Users\/maspannn\/Documents\/RUANG KITA\/WISATA\/East Java Tourism Map.kml.xml|layername=Malang" }, "geometry": { "type": "Point", "coordinates": [ 112.620005, -7.945024, 0.0 ] } },
{ "type": "Feature", "properties": { "Name": "Kedai Wak Edoy", "Description": "", "layer": "East Java Tourism Map Malang", "path": "C:\/Users\/maspannn\/Documents\/RUANG KITA\/WISATA\/East Java Tourism Map.kml.xml|layername=Malang" }, "geometry": { "type": "Point", "coordinates": [ 112.62043, -7.945312, 0.0 ] } },
{ "type": "Feature", "properties": { "Name": "Mie Ayam Solo & Bakso Pak Doel", "Description": "", "layer": "East Java Tourism Map Malang", "path": "C:\/Users\/maspannn\/Documents\/RUANG KITA\/WISATA\/East Java Tourism Map.kml.xml|layername=Malang" }, "geometry": { "type": "Point", "coordinates": [ 112.623908, -7.949059, 0.0 ] } },
{ "type": "Feature", "properties": { "Name": "Kedai Kopi", "Description": "", "layer": "East Java Tourism Map Malang", "path": "C:\/Users\/maspannn\/Documents\/RUANG KITA\/WISATA\/East Java Tourism Map.kml.xml|layername=Malang" }, "geometry": { "type": "Point", "coordinates": [ 112.625451, -7.948158, 0.0 ] } },
{ "type": "Feature", "properties": { "Name": "Tahu Campur Lamongan Cak Roen", "Description": "", "layer": "East Java Tourism Map Malang", "path": "C:\/Users\/maspannn\/Documents\/RUANG KITA\/WISATA\/East Java Tourism Map.kml.xml|layername=Malang" }, "geometry": { "type": "Point", "coordinates": [ 112.628522, -7.949751, 0.0 ] } },
{ "type": "Feature", "properties": { "Name": "KIRIN Korean", "Description": "", "layer": "East Java Tourism Map Malang", "path": "C:\/Users\/maspannn\/Documents\/RUANG KITA\/WISATA\/East Java Tourism Map.kml.xml|layername=Malang" }, "geometry": { "type": "Point", "coordinates": [ 112.6305217, -7.950484, 0.0 ] } },
{ "type": "Feature", "properties": { "Name": "Ayam Geprek Mbok Judes", "Description": "", "layer": "East Java Tourism Map Malang", "path": "C:\/Users\/maspannn\/Documents\/RUANG KITA\/WISATA\/East Java Tourism Map.kml.xml|layername=Malang" }, "geometry": { "type": "Point", "coordinates": [ 112.621629, -7.943311, 0.0 ] } },
{ "type": "Feature", "properties": { "Name": "Noodle Inc. Mie and Dim Sum", "Description": "", "layer": "East Java Tourism Map Malang", "path": "C:\/Users\/maspannn\/Documents\/RUANG KITA\/WISATA\/East Java Tourism Map.kml.xml|layername=Malang" }, "geometry": { "type": "Point", "coordinates": [ 112.623113, -7.941458, 0.0 ] } },
{ "type": "Feature", "properties": { "Name": "BUBUR AYAM ABAH ODIL", "Description": "", "layer": "East Java Tourism Map Malang", "path": "C:\/Users\/maspannn\/Documents\/RUANG KITA\/WISATA\/East Java Tourism Map.kml.xml|layername=Malang" }, "geometry": { "type": "Point", "coordinates": [ 112.623062, -7.940905, 0.0 ] } },
{ "type": "Feature", "properties": { "Name": "Bakso Horeg", "Description": "", "layer": "East Java Tourism Map Malang", "path": "C:\/Users\/maspannn\/Documents\/RUANG KITA\/WISATA\/East Java Tourism Map.kml.xml|layername=Malang" }, "geometry": { "type": "Point", "coordinates": [ 112.624711, -7.939981, 0.0 ] } },
{ "type": "Feature", "properties": { "Name": "Bakso Damas", "Description": "", "layer": "East Java Tourism Map Malang", "path": "C:\/Users\/maspannn\/Documents\/RUANG KITA\/WISATA\/East Java Tourism Map.kml.xml|layername=Malang" }, "geometry": { "type": "Point", "coordinates": [ 112.62522, -7.938399, 0.0 ] } },
{ "type": "Feature", "properties": { "Name": "Nasi Goreng Rempah \" MAFIA\"", "Description": "", "layer": "East Java Tourism Map Malang", "path": "C:\/Users\/maspannn\/Documents\/RUANG KITA\/WISATA\/East Java Tourism Map.kml.xml|layername=Malang" }, "geometry": { "type": "Point", "coordinates": [ 112.6303145, -7.9388124, 0.0 ] } },
{ "type": "Feature", "properties": { "Name": "Kedai PakCikAbin™ - Melayu Food & Drink", "Description": "", "layer": "East Java Tourism Map Malang", "path": "C:\/Users\/maspannn\/Documents\/RUANG KITA\/WISATA\/East Java Tourism Map.kml.xml|layername=Malang" }, "geometry": { "type": "Point", "coordinates": [ 112.627868, -7.944536, 0.0 ] } },
{ "type": "Feature", "properties": { "Name": "Pecel Lele Tahu Tempe Penyet Bebek Lele Ayam", "Description": "", "layer": "East Java Tourism Map Malang", "path": "C:\/Users\/maspannn\/Documents\/RUANG KITA\/WISATA\/East Java Tourism Map.kml.xml|layername=Malang" }, "geometry": { "type": "Point", "coordinates": [ 112.631883, -7.949294, 0.0 ] } },
{ "type": "Feature", "properties": { "Name": "Bakso Dan Mie Ayam Cak Mat", "Description": "", "layer": "East Java Tourism Map Malang", "path": "C:\/Users\/maspannn\/Documents\/RUANG KITA\/WISATA\/East Java Tourism Map.kml.xml|layername=Malang" }, "geometry": { "type": "Point", "coordinates": [ 112.633388, -7.951231, 0.0 ] } },
{ "type": "Feature", "properties": { "Name": "Bakso Gong", "Description": "", "layer": "East Java Tourism Map Malang", "path": "C:\/Users\/maspannn\/Documents\/RUANG KITA\/WISATA\/East Java Tourism Map.kml.xml|layername=Malang" }, "geometry": { "type": "Point", "coordinates": [ 112.631634, -7.952249, 0.0 ] } },
{ "type": "Feature", "properties": { "Name": "Kaliurang", "Description": "", "layer": "East Java Tourism Map Malang", "path": "C:\/Users\/maspannn\/Documents\/RUANG KITA\/WISATA\/East Java Tourism Map.kml.xml|layername=Malang" }, "geometry": { "type": "Point", "coordinates": [ 112.631982, -7.953324, 0.0 ] } },
{ "type": "Feature", "properties": { "Name": "Mie Galau", "Description": "", "layer": "East Java Tourism Map Malang", "path": "C:\/Users\/maspannn\/Documents\/RUANG KITA\/WISATA\/East Java Tourism Map.kml.xml|layername=Malang" }, "geometry": { "type": "Point", "coordinates": [ 112.633477, -7.954963, 0.0 ] } },
{ "type": "Feature", "properties": { "Name": "Wisma Tumapel", "Description": "", "layer": "East Java Tourism Map Malang", "path": "C:\/Users\/maspannn\/Documents\/RUANG KITA\/WISATA\/East Java Tourism Map.kml.xml|layername=Malang" }, "geometry": { "type": "Point", "coordinates": [ 112.6328284, -7.9782381, 0.0 ] } },
{ "type": "Feature", "properties": { "Name": "Malang City Tour Bus", "Description": "", "layer": "East Java Tourism Map Malang", "path": "C:\/Users\/maspannn\/Documents\/RUANG KITA\/WISATA\/East Java Tourism Map.kml.xml|layername=Malang" }, "geometry": { "type": "Point", "coordinates": [ 112.6339281, -7.9777599, 0.0 ] } },
{ "type": "Feature", "properties": { "Name": "Legi Pait", "Description": "", "layer": "East Java Tourism Map Malang", "path": "C:\/Users\/maspannn\/Documents\/RUANG KITA\/WISATA\/East Java Tourism Map.kml.xml|layername=Malang" }, "geometry": { "type": "Point", "coordinates": [ 112.634615, -7.973399, 0.0 ] } },
{ "type": "Feature", "properties": { "Name": "Bromo Pojok", "Description": "", "layer": "East Java Tourism Map Malang", "path": "C:\/Users\/maspannn\/Documents\/RUANG KITA\/WISATA\/East Java Tourism Map.kml.xml|layername=Malang" }, "geometry": { "type": "Point", "coordinates": [ 112.6360361, -7.9733938, 0.0 ] } },
{ "type": "Feature", "properties": { "Name": "Rawon Rampal Malang", "Description": "", "layer": "East Java Tourism Map Malang", "path": "C:\/Users\/maspannn\/Documents\/RUANG KITA\/WISATA\/East Java Tourism Map.kml.xml|layername=Malang" }, "geometry": { "type": "Point", "coordinates": [ 112.638325, -7.974255, 0.0 ] } },
{ "type": "Feature", "properties": { "Name": "Depot 21", "Description": "", "layer": "East Java Tourism Map Malang", "path": "C:\/Users\/maspannn\/Documents\/RUANG KITA\/WISATA\/East Java Tourism Map.kml.xml|layername=Malang" }, "geometry": { "type": "Point", "coordinates": [ 112.628998, -7.966959, 0.0 ] } },
{ "type": "Feature", "properties": { "Name": "Ikan Bakar Cianjur", "Description": "", "layer": "East Java Tourism Map Malang", "path": "C:\/Users\/maspannn\/Documents\/RUANG KITA\/WISATA\/East Java Tourism Map.kml.xml|layername=Malang" }, "geometry": { "type": "Point", "coordinates": [ 112.625521, -7.965208, 0.0 ] } },
{ "type": "Feature", "properties": { "Name": "De'pans", "Description": "", "layer": "East Java Tourism Map Malang", "path": "C:\/Users\/maspannn\/Documents\/RUANG KITA\/WISATA\/East Java Tourism Map.kml.xml|layername=Malang" }, "geometry": { "type": "Point", "coordinates": [ 112.625363, -7.966158, 0.0 ] } },
{ "type": "Feature", "properties": { "Name": "Taman Wisata Merbabu", "Description": "", "layer": "East Java Tourism Map Malang", "path": "C:\/Users\/maspannn\/Documents\/RUANG KITA\/WISATA\/East Java Tourism Map.kml.xml|layername=Malang" }, "geometry": { "type": "Point", "coordinates": [ 112.6258224, -7.9679609, 0.0 ] } },
{ "type": "Feature", "properties": { "Name": "Gereja Katolik Kathedral Santa Perawan Maria Dari Gunung Karmel", "Description": "", "layer": "East Java Tourism Map Malang", "path": "C:\/Users\/maspannn\/Documents\/RUANG KITA\/WISATA\/East Java Tourism Map.kml.xml|layername=Malang" }, "geometry": { "type": "Point", "coordinates": [ 112.6240148, -7.9687011, 0.0 ] } },
{ "type": "Feature", "properties": { "Name": "Patung TRIP", "Description": "", "layer": "East Java Tourism Map Malang", "path": "C:\/Users\/maspannn\/Documents\/RUANG KITA\/WISATA\/East Java Tourism Map.kml.xml|layername=Malang" }, "geometry": { "type": "Point", "coordinates": [ 112.6234977, -7.9684495, 0.0 ] } },
{ "type": "Feature", "properties": { "Name": "The Harvest Patissier & Chocolatier", "Description": "", "layer": "East Java Tourism Map Malang", "path": "C:\/Users\/maspannn\/Documents\/RUANG KITA\/WISATA\/East Java Tourism Map.kml.xml|layername=Malang" }, "geometry": { "type": "Point", "coordinates": [ 112.6215213, -7.9677446, 0.0 ] } },
{ "type": "Feature", "properties": { "Name": "Monumen Pahlawan Trip", "Description": "", "layer": "East Java Tourism Map Malang", "path": "C:\/Users\/maspannn\/Documents\/RUANG KITA\/WISATA\/East Java Tourism Map.kml.xml|layername=Malang" }, "geometry": { "type": "Point", "coordinates": [ 112.6219024, -7.9679118, 0.0 ] } },
{ "type": "Feature", "properties": { "Name": "The Amsterdam", "Description": "", "layer": "East Java Tourism Map Malang", "path": "C:\/Users\/maspannn\/Documents\/RUANG KITA\/WISATA\/East Java Tourism Map.kml.xml|layername=Malang" }, "geometry": { "type": "Point", "coordinates": [ 112.619688, -7.967234, 0.0 ] } },
{ "type": "Feature", "properties": { "Name": "Pangsit dan Es Degan Pak Ri", "Description": "", "layer": "East Java Tourism Map Malang", "path": "C:\/Users\/maspannn\/Documents\/RUANG KITA\/WISATA\/East Java Tourism Map.kml.xml|layername=Malang" }, "geometry": { "type": "Point", "coordinates": [ 112.617037, -7.969819, 0.0 ] } },
{ "type": "Feature", "properties": { "Name": "Pasar Buku Wilis", "Description": "", "layer": "East Java Tourism Map Malang", "path": "C:\/Users\/maspannn\/Documents\/RUANG KITA\/WISATA\/East Java Tourism Map.kml.xml|layername=Malang" }, "geometry": { "type": "Point", "coordinates": [ 112.617635, -7.969258, 0.0 ] } },
{ "type": "Feature", "properties": { "Name": "Museum Mpu Purwa", "Description": "", "layer": "East Java Tourism Map Malang", "path": "C:\/Users\/maspannn\/Documents\/RUANG KITA\/WISATA\/East Java Tourism Map.kml.xml|layername=Malang" }, "geometry": { "type": "Point", "coordinates": [ 112.620815, -7.940395, 0.0 ] } },
{ "type": "Feature", "properties": { "Name": "Bara Bara", "Description": "", "layer": "East Java Tourism Map Malang", "path": "C:\/Users\/maspannn\/Documents\/RUANG KITA\/WISATA\/East Java Tourism Map.kml.xml|layername=Malang" }, "geometry": { "type": "Point", "coordinates": [ 112.62082, -7.942588, 0.0 ] } },
{ "type": "Feature", "properties": { "Name": "Taman Trunojoyo", "Description": "", "layer": "East Java Tourism Map Malang", "path": "C:\/Users\/maspannn\/Documents\/RUANG KITA\/WISATA\/East Java Tourism Map.kml.xml|layername=Malang" }, "geometry": { "type": "Point", "coordinates": [ 112.636342, -7.9765965, 0.0 ] } },
{ "type": "Feature", "properties": { "Name": "Taman Kunang-kunang", "Description": "", "layer": "East Java Tourism Map Malang", "path": "C:\/Users\/maspannn\/Documents\/RUANG KITA\/WISATA\/East Java Tourism Map.kml.xml|layername=Malang" }, "geometry": { "type": "Point", "coordinates": [ 112.6234674, -7.9631662, 0.0 ] } },
{ "type": "Feature", "properties": { "Name": "Hok Lay", "Description": "", "layer": "East Java Tourism Map Malang", "path": "C:\/Users\/maspannn\/Documents\/RUANG KITA\/WISATA\/East Java Tourism Map.kml.xml|layername=Malang" }, "geometry": { "type": "Point", "coordinates": [ 112.634314, -7.9847317, 0.0 ] } },
{ "type": "Feature", "properties": { "Name": "Rujak Manis Semeru", "Description": "", "layer": "East Java Tourism Map Malang", "path": "C:\/Users\/maspannn\/Documents\/RUANG KITA\/WISATA\/East Java Tourism Map.kml.xml|layername=Malang" }, "geometry": { "type": "Point", "coordinates": [ 112.6246512, -7.9737587, 0.0 ] } },
{ "type": "Feature", "properties": { "Name": "Stadion Juice Jumbo", "Description": "", "layer": "East Java Tourism Map Malang", "path": "C:\/Users\/maspannn\/Documents\/RUANG KITA\/WISATA\/East Java Tourism Map.kml.xml|layername=Malang" }, "geometry": { "type": "Point", "coordinates": [ 112.623803, -7.973743, 0.0 ] } },
{ "type": "Feature", "properties": { "Name": "Ayam Goreng Pemuda", "Description": "", "layer": "East Java Tourism Map Malang", "path": "C:\/Users\/maspannn\/Documents\/RUANG KITA\/WISATA\/East Java Tourism Map.kml.xml|layername=Malang" }, "geometry": { "type": "Point", "coordinates": [ 112.626627, -7.975678, 0.0 ] } },
{ "type": "Feature", "properties": { "Name": "Warung Mobil 88", "Description": "", "layer": "East Java Tourism Map Malang", "path": "C:\/Users\/maspannn\/Documents\/RUANG KITA\/WISATA\/East Java Tourism Map.kml.xml|layername=Malang" }, "geometry": { "type": "Point", "coordinates": [ 112.627332, -7.975037, 0.0 ] } },
{ "type": "Feature", "properties": { "Name": "Cucur Mamiku", "Description": "", "layer": "East Java Tourism Map Malang", "path": "C:\/Users\/maspannn\/Documents\/RUANG KITA\/WISATA\/East Java Tourism Map.kml.xml|layername=Malang" }, "geometry": { "type": "Point", "coordinates": [ 112.6281369, -7.9763299, 0.0 ] } },
{ "type": "Feature", "properties": { "Name": "Illy Cafe", "Description": "", "layer": "East Java Tourism Map Malang", "path": "C:\/Users\/maspannn\/Documents\/RUANG KITA\/WISATA\/East Java Tourism Map.kml.xml|layername=Malang" }, "geometry": { "type": "Point", "coordinates": [ 112.627696, -7.976882, 0.0 ] } },
{ "type": "Feature", "properties": { "Name": "Bakso Cak Toha Semeru", "Description": "", "layer": "East Java Tourism Map Malang", "path": "C:\/Users\/maspannn\/Documents\/RUANG KITA\/WISATA\/East Java Tourism Map.kml.xml|layername=Malang" }, "geometry": { "type": "Point", "coordinates": [ 112.628351, -7.976368, 0.0 ] } },
{ "type": "Feature", "properties": { "Name": "Depot Semeru", "Description": "", "layer": "East Java Tourism Map Malang", "path": "C:\/Users\/maspannn\/Documents\/RUANG KITA\/WISATA\/East Java Tourism Map.kml.xml|layername=Malang" }, "geometry": { "type": "Point", "coordinates": [ 112.628154, -7.976582, 0.0 ] } },
{ "type": "Feature", "properties": { "Name": "Pia Cap Mangkok", "Description": "", "layer": "East Java Tourism Map Malang", "path": "C:\/Users\/maspannn\/Documents\/RUANG KITA\/WISATA\/East Java Tourism Map.kml.xml|layername=Malang" }, "geometry": { "type": "Point", "coordinates": [ 112.628464, -7.976557, 0.0 ] } },
{ "type": "Feature", "properties": { "Name": "Harmoni Cafe And Resto", "Description": "", "layer": "East Java Tourism Map Malang", "path": "C:\/Users\/maspannn\/Documents\/RUANG KITA\/WISATA\/East Java Tourism Map.kml.xml|layername=Malang" }, "geometry": { "type": "Point", "coordinates": [ 112.627497, -7.9744465, 0.0 ] } },
{ "type": "Feature", "properties": { "Name": "Bebek Goreng H. Slamet Spesial Sambel Korek", "Description": "", "layer": "East Java Tourism Map Malang", "path": "C:\/Users\/maspannn\/Documents\/RUANG KITA\/WISATA\/East Java Tourism Map.kml.xml|layername=Malang" }, "geometry": { "type": "Point", "coordinates": [ 112.624313, -7.972648, 0.0 ] } },
{ "type": "Feature", "properties": { "Name": "Rumah Opa", "Description": "", "layer": "East Java Tourism Map Malang", "path": "C:\/Users\/maspannn\/Documents\/RUANG KITA\/WISATA\/East Java Tourism Map.kml.xml|layername=Malang" }, "geometry": { "type": "Point", "coordinates": [ 112.624033, -7.972579, 0.0 ] } },
{ "type": "Feature", "properties": { "Name": "Teysa's", "Description": "", "layer": "East Java Tourism Map Malang", "path": "C:\/Users\/maspannn\/Documents\/RUANG KITA\/WISATA\/East Java Tourism Map.kml.xml|layername=Malang" }, "geometry": { "type": "Point", "coordinates": [ 112.6258233, -7.9701405, 0.0 ] } },
{ "type": "Feature", "properties": { "Name": "Cafe Bunga Bali", "Description": "", "layer": "East Java Tourism Map Malang", "path": "C:\/Users\/maspannn\/Documents\/RUANG KITA\/WISATA\/East Java Tourism Map.kml.xml|layername=Malang" }, "geometry": { "type": "Point", "coordinates": [ 112.626024, -7.969494, 0.0 ] } },
{ "type": "Feature", "properties": { "Name": "Monopoli", "Description": "", "layer": "East Java Tourism Map Malang", "path": "C:\/Users\/maspannn\/Documents\/RUANG KITA\/WISATA\/East Java Tourism Map.kml.xml|layername=Malang" }, "geometry": { "type": "Point", "coordinates": [ 112.6254589, -7.9680205, 0.0 ] } },
{ "type": "Feature", "properties": { "Name": "Hutan Kota Merbabu", "Description": "", "layer": "East Java Tourism Map Malang", "path": "C:\/Users\/maspannn\/Documents\/RUANG KITA\/WISATA\/East Java Tourism Map.kml.xml|layername=Malang" }, "geometry": { "type": "Point", "coordinates": [ 112.6264098, -7.9685241, 0.0 ] } },
{ "type": "Feature", "properties": { "Name": "Cafe Wilis", "Description": "", "layer": "East Java Tourism Map Malang", "path": "C:\/Users\/maspannn\/Documents\/RUANG KITA\/WISATA\/East Java Tourism Map.kml.xml|layername=Malang" }, "geometry": { "type": "Point", "coordinates": [ 112.621015, -7.972688, 0.0 ] } },
{ "type": "Feature", "properties": { "Name": "Sugoi Tei", "Description": "", "layer": "East Java Tourism Map Malang", "path": "C:\/Users\/maspannn\/Documents\/RUANG KITA\/WISATA\/East Java Tourism Map.kml.xml|layername=Malang" }, "geometry": { "type": "Point", "coordinates": [ 112.62012, -7.97281, 0.0 ] } },
{ "type": "Feature", "properties": { "Name": "Kupang Lontong Cipto", "Description": "", "layer": "East Java Tourism Map Malang", "path": "C:\/Users\/maspannn\/Documents\/RUANG KITA\/WISATA\/East Java Tourism Map.kml.xml|layername=Malang" }, "geometry": { "type": "Point", "coordinates": [ 112.619908, -7.975064, 0.0 ] } },
{ "type": "Feature", "properties": { "Name": "Sam Nawi Iga Bakar Sop Buntut", "Description": "", "layer": "East Java Tourism Map Malang", "path": "C:\/Users\/maspannn\/Documents\/RUANG KITA\/WISATA\/East Java Tourism Map.kml.xml|layername=Malang" }, "geometry": { "type": "Point", "coordinates": [ 112.617316, -7.974164, 0.0 ] } },
{ "type": "Feature", "properties": { "Name": "Kotak Ikan", "Description": "", "layer": "East Java Tourism Map Malang", "path": "C:\/Users\/maspannn\/Documents\/RUANG KITA\/WISATA\/East Java Tourism Map.kml.xml|layername=Malang" }, "geometry": { "type": "Point", "coordinates": [ 112.617334, -7.973965, 0.0 ] } },
{ "type": "Feature", "properties": { "Name": "Depot Anas", "Description": "", "layer": "East Java Tourism Map Malang", "path": "C:\/Users\/maspannn\/Documents\/RUANG KITA\/WISATA\/East Java Tourism Map.kml.xml|layername=Malang" }, "geometry": { "type": "Point", "coordinates": [ 112.617356, -7.974286, 0.0 ] } },
{ "type": "Feature", "properties": { "Name": "Rujak Bu Tien", "Description": "", "layer": "East Java Tourism Map Malang", "path": "C:\/Users\/maspannn\/Documents\/RUANG KITA\/WISATA\/East Java Tourism Map.kml.xml|layername=Malang" }, "geometry": { "type": "Point", "coordinates": [ 112.61629, -7.970997, 0.0 ] } },
{ "type": "Feature", "properties": { "Name": "Bubur Ayam AGUS", "Description": "", "layer": "East Java Tourism Map Malang", "path": "C:\/Users\/maspannn\/Documents\/RUANG KITA\/WISATA\/East Java Tourism Map.kml.xml|layername=Malang" }, "geometry": { "type": "Point", "coordinates": [ 112.616336, -7.970624, 0.0 ] } },
{ "type": "Feature", "properties": { "Name": "Confett Cafe", "Description": "", "layer": "East Java Tourism Map Malang", "path": "C:\/Users\/maspannn\/Documents\/RUANG KITA\/WISATA\/East Java Tourism Map.kml.xml|layername=Malang" }, "geometry": { "type": "Point", "coordinates": [ 112.613572, -7.967772, 0.0 ] } },
{ "type": "Feature", "properties": { "Name": "Bakso Hebring", "Description": "", "layer": "East Java Tourism Map Malang", "path": "C:\/Users\/maspannn\/Documents\/RUANG KITA\/WISATA\/East Java Tourism Map.kml.xml|layername=Malang" }, "geometry": { "type": "Point", "coordinates": [ 112.613887, -7.967126, 0.0 ] } },
{ "type": "Feature", "properties": { "Name": "Mochi Maco Kesukaan Para Wanita", "Description": "", "layer": "East Java Tourism Map Malang", "path": "C:\/Users\/maspannn\/Documents\/RUANG KITA\/WISATA\/East Java Tourism Map.kml.xml|layername=Malang" }, "geometry": { "type": "Point", "coordinates": [ 112.613456, -7.965826, 0.0 ] } },
{ "type": "Feature", "properties": { "Name": "Colony Cafe", "Description": "", "layer": "East Java Tourism Map Malang", "path": "C:\/Users\/maspannn\/Documents\/RUANG KITA\/WISATA\/East Java Tourism Map.kml.xml|layername=Malang" }, "geometry": { "type": "Point", "coordinates": [ 112.603956, -7.96477, 0.0 ] } },
{ "type": "Feature", "properties": { "Name": "LEGO HOUSE CAFE", "Description": "", "layer": "East Java Tourism Map Malang", "path": "C:\/Users\/maspannn\/Documents\/RUANG KITA\/WISATA\/East Java Tourism Map.kml.xml|layername=Malang" }, "geometry": { "type": "Point", "coordinates": [ 112.600197, -7.9622, 0.0 ] } },
{ "type": "Feature", "properties": { "Name": "Candi Badut", "Description": "", "layer": "East Java Tourism Map Malang", "path": "C:\/Users\/maspannn\/Documents\/RUANG KITA\/WISATA\/East Java Tourism Map.kml.xml|layername=Malang" }, "geometry": { "type": "Point", "coordinates": [ 112.598598, -7.957177, 0.0 ] } },
{ "type": "Feature", "properties": { "Name": "Soto Sawah Ketangi", "Description": "", "layer": "East Java Tourism Map Malang", "path": "C:\/Users\/maspannn\/Documents\/RUANG KITA\/WISATA\/East Java Tourism Map.kml.xml|layername=Malang" }, "geometry": { "type": "Point", "coordinates": [ 112.609363, -7.920688, 0.0 ] } },
{ "type": "Feature", "properties": { "Name": "Taman Wisata Wendit", "Description": "", "layer": "East Java Tourism Map Malang", "path": "C:\/Users\/maspannn\/Documents\/RUANG KITA\/WISATA\/East Java Tourism Map.kml.xml|layername=Malang" }, "geometry": { "type": "Point", "coordinates": [ 112.67442, -7.95214, 0.0 ] } },
{ "type": "Feature", "properties": { "Name": "Sumber Wendit", "Description": "", "layer": "East Java Tourism Map Malang", "path": "C:\/Users\/maspannn\/Documents\/RUANG KITA\/WISATA\/East Java Tourism Map.kml.xml|layername=Malang" }, "geometry": { "type": "Point", "coordinates": [ 112.672919, -7.953552, 0.0 ] } },
{ "type": "Feature", "properties": { "Name": "Glintung Go Green", "Description": "", "layer": "East Java Tourism Map Malang", "path": "C:\/Users\/maspannn\/Documents\/RUANG KITA\/WISATA\/East Java Tourism Map.kml.xml|layername=Malang" }, "geometry": { "type": "Point", "coordinates": [ 112.642023, -7.945582, 0.0 ] } },
{ "type": "Feature", "properties": { "Name": "Nasi Bebek Sinjay", "Description": "", "layer": "East Java Tourism Map Malang", "path": "C:\/Users\/maspannn\/Documents\/RUANG KITA\/WISATA\/East Java Tourism Map.kml.xml|layername=Malang" }, "geometry": { "type": "Point", "coordinates": [ 112.647529, -7.914131, 0.0 ] } },
{ "type": "Feature", "properties": { "Name": "Candi Singosari", "Description": "", "layer": "East Java Tourism Map Malang", "path": "C:\/Users\/maspannn\/Documents\/RUANG KITA\/WISATA\/East Java Tourism Map.kml.xml|layername=Malang" }, "geometry": { "type": "Point", "coordinates": [ 112.663881, -7.887785, 0.0 ] } },
{ "type": "Feature", "properties": { "Name": "Candirenggo", "Description": "", "layer": "East Java Tourism Map Malang", "path": "C:\/Users\/maspannn\/Documents\/RUANG KITA\/WISATA\/East Java Tourism Map.kml.xml|layername=Malang" }, "geometry": { "type": "Point", "coordinates": [ 112.663272, -7.887683, 0.0 ] } },
{ "type": "Feature", "properties": { "Name": "Sandiva", "Description": "", "layer": "East Java Tourism Map Malang", "path": "C:\/Users\/maspannn\/Documents\/RUANG KITA\/WISATA\/East Java Tourism Map.kml.xml|layername=Malang" }, "geometry": { "type": "Point", "coordinates": [ 112.663089, -7.88745, 0.0 ] } },
{ "type": "Feature", "properties": { "Name": "Bakso Cak Kar", "Description": "", "layer": "East Java Tourism Map Malang", "path": "C:\/Users\/maspannn\/Documents\/RUANG KITA\/WISATA\/East Java Tourism Map.kml.xml|layername=Malang" }, "geometry": { "type": "Point", "coordinates": [ 112.6619334, -7.8874081, 0.0 ] } },
{ "type": "Feature", "properties": { "Name": "Arca Dwipangga", "Description": "", "layer": "East Java Tourism Map Malang", "path": "C:\/Users\/maspannn\/Documents\/RUANG KITA\/WISATA\/East Java Tourism Map.kml.xml|layername=Malang" }, "geometry": { "type": "Point", "coordinates": [ 112.6621369, -7.887015, 0.0 ] } },
{ "type": "Feature", "properties": { "Name": "Bakso Sumsum Cak Hadi", "Description": "", "layer": "East Java Tourism Map Malang", "path": "C:\/Users\/maspannn\/Documents\/RUANG KITA\/WISATA\/East Java Tourism Map.kml.xml|layername=Malang" }, "geometry": { "type": "Point", "coordinates": [ 112.664392, -7.88916, 0.0 ] } },
{ "type": "Feature", "properties": { "Name": "Candi Sumberawan", "Description": "", "layer": "East Java Tourism Map Malang", "path": "C:\/Users\/maspannn\/Documents\/RUANG KITA\/WISATA\/East Java Tourism Map.kml.xml|layername=Malang" }, "geometry": { "type": "Point", "coordinates": [ 112.644772, -7.855358, 0.0 ] } },
{ "type": "Feature", "properties": { "Name": "Pemandian Kendedes", "Description": "", "layer": "East Java Tourism Map Malang", "path": "C:\/Users\/maspannn\/Documents\/RUANG KITA\/WISATA\/East Java Tourism Map.kml.xml|layername=Malang" }, "geometry": { "type": "Point", "coordinates": [ 112.6602778, -7.8819444, 0.0 ] } },
{ "type": "Feature", "properties": { "Name": "Stasiun Singosari", "Description": "", "layer": "East Java Tourism Map Malang", "path": "C:\/Users\/maspannn\/Documents\/RUANG KITA\/WISATA\/East Java Tourism Map.kml.xml|layername=Malang" }, "geometry": { "type": "Point", "coordinates": [ 112.6663609, -7.8969006, 0.0 ] } },
{ "type": "Feature", "properties": { "Name": "Masjid Tiban Turen", "Description": "", "layer": "East Java Tourism Map Malang", "path": "C:\/Users\/maspannn\/Documents\/RUANG KITA\/WISATA\/East Java Tourism Map.kml.xml|layername=Malang" }, "geometry": { "type": "Point", "coordinates": [ 112.713267, -8.150941, 0.0 ] } },
{ "type": "Feature", "properties": { "Name": "Stadion Kanjuruhan", "Description": "", "layer": "East Java Tourism Map Malang", "path": "C:\/Users\/maspannn\/Documents\/RUANG KITA\/WISATA\/East Java Tourism Map.kml.xml|layername=Malang" }, "geometry": { "type": "Point", "coordinates": [ 112.574005, -8.150267, 0.0 ] } },
{ "type": "Feature", "properties": { "Name": "Gunung Bromo", "Description": "", "layer": "East Java Tourism Map Malang", "path": "C:\/Users\/maspannn\/Documents\/RUANG KITA\/WISATA\/East Java Tourism Map.kml.xml|layername=Malang" }, "geometry": { "type": "Point", "coordinates": [ 112.95, -7.941667, 0.0 ] } },
{ "type": "Feature", "properties": { "Name": "Taman Rekreasi Sengkaling", "Description": "", "layer": "East Java Tourism Map Malang", "path": "C:\/Users\/maspannn\/Documents\/RUANG KITA\/WISATA\/East Java Tourism Map.kml.xml|layername=Malang" }, "geometry": { "type": "Point", "coordinates": [ 112.587822, -7.914365, 0.0 ] } },
{ "type": "Feature", "properties": { "Name": "Sengkaling Food Festival", "Description": "", "layer": "East Java Tourism Map Malang", "path": "C:\/Users\/maspannn\/Documents\/RUANG KITA\/WISATA\/East Java Tourism Map.kml.xml|layername=Malang" }, "geometry": { "type": "Point", "coordinates": [ 112.587097, -7.915355, 0.0 ] } },
{ "type": "Feature", "properties": { "Name": "Mang Kaling", "Description": "", "layer": "East Java Tourism Map Malang", "path": "C:\/Users\/maspannn\/Documents\/RUANG KITA\/WISATA\/East Java Tourism Map.kml.xml|layername=Malang" }, "geometry": { "type": "Point", "coordinates": [ 112.5876193, -7.9165059, 0.0 ] } },
{ "type": "Feature", "properties": { "Name": "Spesial Sambal SS Warung", "Description": "", "layer": "East Java Tourism Map Malang", "path": "C:\/Users\/maspannn\/Documents\/RUANG KITA\/WISATA\/East Java Tourism Map.kml.xml|layername=Malang" }, "geometry": { "type": "Point", "coordinates": [ 112.5884532, -7.9170857, 0.0 ] } },
{ "type": "Feature", "properties": { "Name": "Ria Djenaka Plat M", "Description": "", "layer": "East Java Tourism Map Malang", "path": "C:\/Users\/maspannn\/Documents\/RUANG KITA\/WISATA\/East Java Tourism Map.kml.xml|layername=Malang" }, "geometry": { "type": "Point", "coordinates": [ 112.596003, -7.922256, 0.0 ] } },
{ "type": "Feature", "properties": { "Name": "Kedai Assalamu'alaikum", "Description": "", "layer": "East Java Tourism Map Malang", "path": "C:\/Users\/maspannn\/Documents\/RUANG KITA\/WISATA\/East Java Tourism Map.kml.xml|layername=Malang" }, "geometry": { "type": "Point", "coordinates": [ 112.596215, -7.92247, 0.0 ] } },
{ "type": "Feature", "properties": { "Name": "Lalapan Bengkel", "Description": "", "layer": "East Java Tourism Map Malang", "path": "C:\/Users\/maspannn\/Documents\/RUANG KITA\/WISATA\/East Java Tourism Map.kml.xml|layername=Malang" }, "geometry": { "type": "Point", "coordinates": [ 112.595234, -7.925927, 0.0 ] } },
{ "type": "Feature", "properties": { "Name": "Taman Rekreasi Tlogomas", "Description": "", "layer": "East Java Tourism Map Malang", "path": "C:\/Users\/maspannn\/Documents\/RUANG KITA\/WISATA\/East Java Tourism Map.kml.xml|layername=Malang" }, "geometry": { "type": "Point", "coordinates": [ 112.605458, -7.930614, 0.0 ] } },
{ "type": "Feature", "properties": { "Name": "Warung Mak Par", "Description": "", "layer": "East Java Tourism Map Malang", "path": "C:\/Users\/maspannn\/Documents\/RUANG KITA\/WISATA\/East Java Tourism Map.kml.xml|layername=Malang" }, "geometry": { "type": "Point", "coordinates": [ 112.597125, -7.942395, 0.0 ] } },
{ "type": "Feature", "properties": { "Name": "Wisata Petik Jeruk Selorejo", "Description": "", "layer": "East Java Tourism Map Malang", "path": "C:\/Users\/maspannn\/Documents\/RUANG KITA\/WISATA\/East Java Tourism Map.kml.xml|layername=Malang" }, "geometry": { "type": "Point", "coordinates": [ 112.54143, -7.938155, 0.0 ] } },
{ "type": "Feature", "properties": { "Name": "P-WEC", "Description": "", "layer": "East Java Tourism Map Malang", "path": "C:\/Users\/maspannn\/Documents\/RUANG KITA\/WISATA\/East Java Tourism Map.kml.xml|layername=Malang" }, "geometry": { "type": "Point", "coordinates": [ 112.543226, -7.952142, 0.0 ] } },
{ "type": "Feature", "properties": { "Name": "Bumi Perkemahan Bedengan", "Description": "", "layer": "East Java Tourism Map Malang", "path": "C:\/Users\/maspannn\/Documents\/RUANG KITA\/WISATA\/East Java Tourism Map.kml.xml|layername=Malang" }, "geometry": { "type": "Point", "coordinates": [ 112.5514447, -7.9310444, 0.0 ] } },
{ "type": "Feature", "properties": { "Name": "Museum Zoologi Frater Vianney", "Description": "Jl. Raya Karangwidoro 7 Karangbesuki, Dau, Kabupaten Malang - Telp. 0341-567465, 0341-558965", "layer": "East Java Tourism Map Malang", "path": "C:\/Users\/maspannn\/Documents\/RUANG KITA\/WISATA\/East Java Tourism Map.kml.xml|layername=Malang" }, "geometry": { "type": "Point", "coordinates": [ 112.5824323, -7.9552449, 0.0 ] } },
{ "type": "Feature", "properties": { "Name": "Punden Mojorejo", "Description": "", "layer": "East Java Tourism Map Malang", "path": "C:\/Users\/maspannn\/Documents\/RUANG KITA\/WISATA\/East Java Tourism Map.kml.xml|layername=Malang" }, "geometry": { "type": "Point", "coordinates": [ 112.5710249, -7.902714, 0.0 ] } },
{ "type": "Feature", "properties": { "Name": "Punden Kalisongo", "Description": "", "layer": "East Java Tourism Map Malang", "path": "C:\/Users\/maspannn\/Documents\/RUANG KITA\/WISATA\/East Java Tourism Map.kml.xml|layername=Malang" }, "geometry": { "type": "Point", "coordinates": [ 112.602632, -7.9706039, 0.0 ] } },
{ "type": "Feature", "properties": { "Name": "Museum Kesehatan Jiwa Lawang", "Description": "", "layer": "East Java Tourism Map Malang", "path": "C:\/Users\/maspannn\/Documents\/RUANG KITA\/WISATA\/East Java Tourism Map.kml.xml|layername=Malang" }, "geometry": { "type": "Point", "coordinates": [ 112.716017, -7.825356, 0.0 ] } },
{ "type": "Feature", "properties": { "Name": "Dapur 93", "Description": "", "layer": "East Java Tourism Map Malang", "path": "C:\/Users\/maspannn\/Documents\/RUANG KITA\/WISATA\/East Java Tourism Map.kml.xml|layername=Malang" }, "geometry": { "type": "Point", "coordinates": [ 112.624683, -7.935755, 0.0 ] } },
{ "type": "Feature", "properties": { "Name": "Museum Musik Indonesia", "Description": "", "layer": "East Java Tourism Map Malang", "path": "C:\/Users\/maspannn\/Documents\/RUANG KITA\/WISATA\/East Java Tourism Map.kml.xml|layername=Malang" }, "geometry": { "type": "Point", "coordinates": [ 112.6242989, -7.9355553, 0.0 ] } },
{ "type": "Feature", "properties": { "Name": "Candi Jago", "Description": "", "layer": "East Java Tourism Map Malang", "path": "C:\/Users\/maspannn\/Documents\/RUANG KITA\/WISATA\/East Java Tourism Map.kml.xml|layername=Malang" }, "geometry": { "type": "Point", "coordinates": [ 112.76413, -8.005803, 0.0 ] } },
{ "type": "Feature", "properties": { "Name": "Candi Kidal", "Description": "", "layer": "East Java Tourism Map Malang", "path": "C:\/Users\/maspannn\/Documents\/RUANG KITA\/WISATA\/East Java Tourism Map.kml.xml|layername=Malang" }, "geometry": { "type": "Point", "coordinates": [ 112.708482, -8.025642, 0.0 ] } },
{ "type": "Feature", "properties": { "Name": "Stasiun Malang Kota Lama", "Description": "", "layer": "East Java Tourism Map Malang", "path": "C:\/Users\/maspannn\/Documents\/RUANG KITA\/WISATA\/East Java Tourism Map.kml.xml|layername=Malang" }, "geometry": { "type": "Point", "coordinates": [ 112.63222, -7.99472, 0.0 ] } },
{ "type": "Feature", "properties": { "Name": "Bakso Solo", "Description": "", "layer": "East Java Tourism Map Malang", "path": "C:\/Users\/maspannn\/Documents\/RUANG KITA\/WISATA\/East Java Tourism Map.kml.xml|layername=Malang" }, "geometry": { "type": "Point", "coordinates": [ 112.633096, -7.993563, 0.0 ] } },
{ "type": "Feature", "properties": { "Name": "Lapangan Rampal", "Description": "", "layer": "East Java Tourism Map Malang", "path": "C:\/Users\/maspannn\/Documents\/RUANG KITA\/WISATA\/East Java Tourism Map.kml.xml|layername=Malang" }, "geometry": { "type": "Point", "coordinates": [ 112.640081, -7.972902, 0.0 ] } },
{ "type": "Feature", "properties": { "Name": "Sate Bunul H. Paino", "Description": "", "layer": "East Java Tourism Map Malang", "path": "C:\/Users\/maspannn\/Documents\/RUANG KITA\/WISATA\/East Java Tourism Map.kml.xml|layername=Malang" }, "geometry": { "type": "Point", "coordinates": [ 112.647091, -7.973271, 0.0 ] } },
{ "type": "Feature", "properties": { "Name": "Baksoku", "Description": "", "layer": "East Java Tourism Map Malang", "path": "C:\/Users\/maspannn\/Documents\/RUANG KITA\/WISATA\/East Java Tourism Map.kml.xml|layername=Malang" }, "geometry": { "type": "Point", "coordinates": [ 112.663971, -7.978314, 0.0 ] } },
{ "type": "Feature", "properties": { "Name": "Warung Ayam Bakar Lientang", "Description": "", "layer": "East Java Tourism Map Malang", "path": "C:\/Users\/maspannn\/Documents\/RUANG KITA\/WISATA\/East Java Tourism Map.kml.xml|layername=Malang" }, "geometry": { "type": "Point", "coordinates": [ 112.662523, -7.975878, 0.0 ] } },
{ "type": "Feature", "properties": { "Name": "Erni Wisma", "Description": "", "layer": "East Java Tourism Map Malang", "path": "C:\/Users\/maspannn\/Documents\/RUANG KITA\/WISATA\/East Java Tourism Map.kml.xml|layername=Malang" }, "geometry": { "type": "Point", "coordinates": [ 112.704127, -7.823599, 0.0 ] } },
{ "type": "Feature", "properties": { "Name": "Kebun Teh Wonosari", "Description": "", "layer": "East Java Tourism Map Malang", "path": "C:\/Users\/maspannn\/Documents\/RUANG KITA\/WISATA\/East Java Tourism Map.kml.xml|layername=Malang" }, "geometry": { "type": "Point", "coordinates": [ 112.626494, -7.803463, 0.0 ] } },
{ "type": "Feature", "properties": { "Name": "Uniccone", "Description": "Jl. Trunojoyo 16", "layer": "East Java Tourism Map Malang", "path": "C:\/Users\/maspannn\/Documents\/RUANG KITA\/WISATA\/East Java Tourism Map.kml.xml|layername=Malang" }, "geometry": { "type": "Point", "coordinates": [ 112.6365942, -7.9750054, 0.0 ] } },
{ "type": "Feature", "properties": { "Name": "Sumber Maron - Wisata Mata Air Alami", "Description": "", "layer": "East Java Tourism Map Malang", "path": "C:\/Users\/maspannn\/Documents\/RUANG KITA\/WISATA\/East Java Tourism Map.kml.xml|layername=Malang" }, "geometry": { "type": "Point", "coordinates": [ 112.5918488, -8.1655145, 0.0 ] } },
{ "type": "Feature", "properties": { "Name": "Sumber Sira", "Description": "", "layer": "East Java Tourism Map Malang", "path": "C:\/Users\/maspannn\/Documents\/RUANG KITA\/WISATA\/East Java Tourism Map.kml.xml|layername=Malang" }, "geometry": { "type": "Point", "coordinates": [ 112.6204159, -8.1227618, 0.0 ] } },
{ "type": "Feature", "properties": { "Name": "Jalan Sumber Taman", "Description": "", "layer": "East Java Tourism Map Malang", "path": "C:\/Users\/maspannn\/Documents\/RUANG KITA\/WISATA\/East Java Tourism Map.kml.xml|layername=Malang" }, "geometry": { "type": "Point", "coordinates": [ 112.5983502, -8.1717207, 0.0 ] } },
{ "type": "Feature", "properties": { "Name": "Agro Salak Swaru", "Description": "", "layer": "East Java Tourism Map Malang", "path": "C:\/Users\/maspannn\/Documents\/RUANG KITA\/WISATA\/East Java Tourism Map.kml.xml|layername=Malang" }, "geometry": { "type": "Point", "coordinates": [ 112.6177688, -8.194187, 0.0 ] } },
{ "type": "Feature", "properties": { "Name": "Agro Tawon - Peternakan Tawon Rimba Raya", "Description": "", "layer": "East Java Tourism Map Malang", "path": "C:\/Users\/maspannn\/Documents\/RUANG KITA\/WISATA\/East Java Tourism Map.kml.xml|layername=Malang" }, "geometry": { "type": "Point", "coordinates": [ 112.6932411, -7.8512279, 0.0 ] } },
{ "type": "Feature", "properties": { "Name": "Agrowisata Desa Argoyuwono", "Description": "", "layer": "East Java Tourism Map Malang", "path": "C:\/Users\/maspannn\/Documents\/RUANG KITA\/WISATA\/East Java Tourism Map.kml.xml|layername=Malang" }, "geometry": { "type": "Point", "coordinates": [ 112.8999225, -8.1954851, 0.0 ] } },
{ "type": "Feature", "properties": { "Name": "Air Terjun Coban Rondo", "Description": "", "layer": "East Java Tourism Map Malang", "path": "C:\/Users\/maspannn\/Documents\/RUANG KITA\/WISATA\/East Java Tourism Map.kml.xml|layername=Malang" }, "geometry": { "type": "Point", "coordinates": [ 112.477319, -7.884994, 0.0 ] } },
{ "type": "Feature", "properties": { "Name": "Pasar Burung Splendid", "Description": "", "layer": "East Java Tourism Map Malang", "path": "C:\/Users\/maspannn\/Documents\/RUANG KITA\/WISATA\/East Java Tourism Map.kml.xml|layername=Malang" }, "geometry": { "type": "Point", "coordinates": [ 112.6311269, -7.977848, 0.0 ] } },
{ "type": "Feature", "properties": { "Name": "Sarinah Malang", "Description": "", "layer": "East Java Tourism Map Malang", "path": "C:\/Users\/maspannn\/Documents\/RUANG KITA\/WISATA\/East Java Tourism Map.kml.xml|layername=Malang" }, "geometry": { "type": "Point", "coordinates": [ 112.6307633, -7.9812768, 0.0 ] } },
{ "type": "Feature", "properties": { "Name": "Sarinah Cineplex Cinema", "Description": "", "layer": "East Java Tourism Map Malang", "path": "C:\/Users\/maspannn\/Documents\/RUANG KITA\/WISATA\/East Java Tourism Map.kml.xml|layername=Malang" }, "geometry": { "type": "Point", "coordinates": [ 112.6308327, -7.9813354, 0.0 ] } },
{ "type": "Feature", "properties": { "Name": "DILo Malang | Malang Digital Innovation Lounge", "Description": "", "layer": "East Java Tourism Map Malang", "path": "C:\/Users\/maspannn\/Documents\/RUANG KITA\/WISATA\/East Java Tourism Map.kml.xml|layername=Malang" }, "geometry": { "type": "Point", "coordinates": [ 112.629902, -7.980217, 0.0 ] } },
{ "type": "Feature", "properties": { "Name": "Taman Tembakau Cigar Corner Rokok-Rokok & Tembakau", "Description": "", "layer": "East Java Tourism Map Malang", "path": "C:\/Users\/maspannn\/Documents\/RUANG KITA\/WISATA\/East Java Tourism Map.kml.xml|layername=Malang" }, "geometry": { "type": "Point", "coordinates": [ 112.629273, -7.9787139, 0.0 ] } },
{ "type": "Feature", "properties": { "Name": "Swalayan Lai Lai", "Description": "", "layer": "East Java Tourism Map Malang", "path": "C:\/Users\/maspannn\/Documents\/RUANG KITA\/WISATA\/East Java Tourism Map.kml.xml|layername=Malang" }, "geometry": { "type": "Point", "coordinates": [ 112.6278042, -7.9767697, 0.0 ] } },
{ "type": "Feature", "properties": { "Name": "Republik Resto", "Description": "", "layer": "East Java Tourism Map Malang", "path": "C:\/Users\/maspannn\/Documents\/RUANG KITA\/WISATA\/East Java Tourism Map.kml.xml|layername=Malang" }, "geometry": { "type": "Point", "coordinates": [ 112.626321, -7.975903, 0.0 ] } },
{ "type": "Feature", "properties": { "Name": "Diva Karaoke", "Description": "", "layer": "East Java Tourism Map Malang", "path": "C:\/Users\/maspannn\/Documents\/RUANG KITA\/WISATA\/East Java Tourism Map.kml.xml|layername=Malang" }, "geometry": { "type": "Point", "coordinates": [ 112.6259512, -7.9762246, 0.0 ] } },
{ "type": "Feature", "properties": { "Name": "Prambanan Sari", "Description": "", "layer": "East Java Tourism Map Malang", "path": "C:\/Users\/maspannn\/Documents\/RUANG KITA\/WISATA\/East Java Tourism Map.kml.xml|layername=Malang" }, "geometry": { "type": "Point", "coordinates": [ 112.626978, -7.97478, 0.0 ] } },
{ "type": "Feature", "properties": { "Name": "Van Oosten", "Description": "", "layer": "East Java Tourism Map Malang", "path": "C:\/Users\/maspannn\/Documents\/RUANG KITA\/WISATA\/East Java Tourism Map.kml.xml|layername=Malang" }, "geometry": { "type": "Point", "coordinates": [ 112.6280007, -7.9652584, 0.0 ] } },
{ "type": "Feature", "properties": { "Name": "Stmj Ijen Sob", "Description": "", "layer": "East Java Tourism Map Malang", "path": "C:\/Users\/maspannn\/Documents\/RUANG KITA\/WISATA\/East Java Tourism Map.kml.xml|layername=Malang" }, "geometry": { "type": "Point", "coordinates": [ 112.625611, -7.963271, 0.0 ] } },
{ "type": "Feature", "properties": { "Name": "TJ Heritage Steak N Bistro", "Description": "", "layer": "East Java Tourism Map Malang", "path": "C:\/Users\/maspannn\/Documents\/RUANG KITA\/WISATA\/East Java Tourism Map.kml.xml|layername=Malang" }, "geometry": { "type": "Point", "coordinates": [ 112.6251556, -7.9645479, 0.0 ] } },
{ "type": "Feature", "properties": { "Name": "Ikan Bakar Cianjur", "Description": "", "layer": "East Java Tourism Map Malang", "path": "C:\/Users\/maspannn\/Documents\/RUANG KITA\/WISATA\/East Java Tourism Map.kml.xml|layername=Malang" }, "geometry": { "type": "Point", "coordinates": [ 112.625521, -7.965208, 0.0 ] } },
{ "type": "Feature", "properties": { "Name": "Monumen Hamid Rusdi", "Description": "", "layer": "East Java Tourism Map Malang", "path": "C:\/Users\/maspannn\/Documents\/RUANG KITA\/WISATA\/East Java Tourism Map.kml.xml|layername=Malang" }, "geometry": { "type": "Point", "coordinates": [ 112.6251683, -7.9656378, 0.0 ] } },
{ "type": "Feature", "properties": { "Name": "Dapur Cokelat", "Description": "", "layer": "East Java Tourism Map Malang", "path": "C:\/Users\/maspannn\/Documents\/RUANG KITA\/WISATA\/East Java Tourism Map.kml.xml|layername=Malang" }, "geometry": { "type": "Point", "coordinates": [ 112.6253473, -7.9680406, 0.0 ] } },
{ "type": "Feature", "properties": { "Name": "Perpustakaan Kota", "Description": "", "layer": "East Java Tourism Map Malang", "path": "C:\/Users\/maspannn\/Documents\/RUANG KITA\/WISATA\/East Java Tourism Map.kml.xml|layername=Malang" }, "geometry": { "type": "Point", "coordinates": [ 112.62229, -7.9720396, 0.0 ] } },
{ "type": "Feature", "properties": { "Name": "De Liv Resto", "Description": "", "layer": "East Java Tourism Map Malang", "path": "C:\/Users\/maspannn\/Documents\/RUANG KITA\/WISATA\/East Java Tourism Map.kml.xml|layername=Malang" }, "geometry": { "type": "Point", "coordinates": [ 112.622708, -7.972556, 0.0 ] } },
{ "type": "Feature", "properties": { "Name": "Milk Story", "Description": "", "layer": "East Java Tourism Map Malang", "path": "C:\/Users\/maspannn\/Documents\/RUANG KITA\/WISATA\/East Java Tourism Map.kml.xml|layername=Malang" }, "geometry": { "type": "Point", "coordinates": [ 112.623293, -7.972927, 0.0 ] } },
{ "type": "Feature", "properties": { "Name": "My Kopi O!", "Description": "", "layer": "East Java Tourism Map Malang", "path": "C:\/Users\/maspannn\/Documents\/RUANG KITA\/WISATA\/East Java Tourism Map.kml.xml|layername=Malang" }, "geometry": { "type": "Point", "coordinates": [ 112.623673, -7.9744539, 0.0 ] } },